Time,aileron,elevator,rudder,flaps,throttle0,throttle1,vsi-fpm,alt-ft,ai-pitch,ai-roll,ai-offset,hi-heading,roll,pitch,heading,airspeed,speed-north,speed-east,speed-down,uBody-fps,wBody-fps,north-accel-fps_sec,east-accel-fps_sec,down-accel-fps_sec,x-accel-fps_sec,y-accel-fps_sec,z-accel-fps_sec,latitude,longitude,altitude,crashed
19,0,0,0,0,0.2,0,-19.85575683,143.0045818,11.38442339,37.94807796,,282.9372242,0.113108826,4.946573237,180.0139742,3.001684253,-0.001152342,0.000192679,-6.05E-05,0.001153218,3.95E-05,0,0,0,2.694883519,-0.063610718,-32.1115601,63.99183623,-22.60542633,146.229664,0
20,0,0,0,0,0.2,0,-17.19826268,142.9237589,8.672287446,28.90672889,,282.933107,0.10994752,4.927063016,180.0137047,3.000938134,-0.001340942,0.00021087,-6.56E-05,0.001341571,5.02E-05,0,0,0,2.681744495,-0.061487471,-32.11260768,63.99183623,-22.60542633,146.2298474,0
21,0,0,0,0,0.2,0,-17.12559159,142.842293,5.403276827,17.85962166,,282.2379623,0.103795452,4.889630806,180.0131837,3.003349444,-0.007210562,0.001093053,-0.000357411,0.007214534,0.000260455,0,0,0,2.670355307,-0.059081015,-32.11367576,63.99183622,-22.60542632,146.2302074,0
22,0,0,0,0,0.2,0,-10.03754583,142.7606534,3.733119943,6.575342775,,254.6313012,0.091870151,4.856100258,180.0093753,3.124429759,-0.244461072,-3.60E-05,-0.001764564,0.243732946,0.018936238,0,0,0,2.997659484,-0.02202957,-32.0921588,63.99183596,-22.60542632,146.2309975,0
23,0,0,0,0.6666668,0.2,0,-19.58736665,142.6818635,5.057118885,0.794006351,,193.3522873,0.092187884,4.853926082,180.0010032,3.285836729,-0.555049893,0.000468288,-0.003745157,0.553376187,0.043234918,0,0,0,2.869226122,-0.113662621,-32.09155787,63.99183483,-22.60542632,146.2327671,0
24.0167,0,0,0,1,0.2,0,-10.36973972,142.6012562,4.848761821,0.095727428,,192.9055544,0.09579449,4.848682044,179.989458,3.361535155,-0.701149258,-0.000890525,-0.00483651,0.699048755,0.054443289,0,0,0,2.710798509,0.007928123,-32.11642899,63.99183303,-22.60542632,146.2355486,0
25.0083,0,0,0,1,0.2,0,-10.32540774,142.5236402,4.845307751,0.097694465,,192.8944036,0.097713279,4.845265217,179.9783127,3.377805777,-0.732948584,0.000636774,-0.00501751,0.730753341,0.056909522,0,0,0,2.641977733,-0.081869918,-32.11175989,63.99183107,-22.60542632,146.2385827,0
26.025,0,0,0,1,0.211,0,-13.80702259,142.4449584,4.843775782,0.0981961,,192.8833325,0.098212669,4.843760597,179.9672265,3.373454306,-0.727038003,-0.00034881,-0.005036782,0.724866485,0.05637008,0,0,0,2.626302178,0.003283368,-32.12452943,63.99182905,-22.60542632,146.2417012,0
27.0167,0,0,0,1,0.299,0,-19.29206393,142.4091553,4.843588851,0.098089112,,192.8783147,0.098079028,4.843588726,179.9622112,3.371776126,-0.724053855,0.000946089,-0.004931383,0.721885046,0.056223138,0,0,0,2.634974029,-0.081554815,-32.11148036,63.99182815,-22.60542632,146.2431024,0
28,0,0,0,1,0.772,0,-13.82322002,142.2905147,4.852729472,0.090870626,,192.8551107,0.090722168,4.852959298,179.9387799,3.508097741,-0.983278853,0.001421977,-0.00698271,0.980345569,0.076227185,0,0,0,3.253102724,0.024890113,-32.079797,63.99182488,-22.60542631,146.2481488,0
29.025,0,0,0,1,1,0,-18.32446293,142.2145928,4.889357886,0.06260038,,192.7703155,0.062313862,4.889701262,179.8528339,4.303953343,-2.445414652,0.008107178,-0.017477278,2.438017327,0.191031132,0,0,0,5.084879278,0.01273346,-31.92752902,63.99182055,-22.60542628,146.2550918,0
30.0083,0,0,0,1,1,0,-15.10940584,142.1509718,4.93904936,0.023917814,,192.3571149,0.023741186,4.939276465,179.4362113,6.229382287,-5.848644171,0.056799652,-0.041449824,5.830768835,0.462295176,0,0,0,6.99677782,-0.080579004,-31.77040487,63.99180982,-22.60542613,146.2723953,0
31,0,0,0,1,1,0,-10.4588171,142.1043078,4.963691375,0.005010305,,191.276145,0.004980101,4.963732024,178.3504902,9.052054013,-10.7018627,0.29401086,-0.075683665,10.67228911,0.85092766,0,0,0,7.910949726,-0.258680114,-31.69564413,63.99178739,-22.60542523,146.3085625,0
32.0083,0,0,0,1,1,0,-11.73295281,142.0807224,4.958165936,0.008533991,,189.4158063,0.008586596,4.958081782,176.4853744,12.24638752,-16.09882108,0.941224455,-0.114133868,16.07576531,1.280027085,0,0,0,8.141466631,-0.585621102,-31.67927241,63.99175047,-22.60542169,146.3683166,0
33.025,0,0,0,1,1,0,8.899407113,142.0823208,4.933067721,0.022874755,,186.8807251,0.022959054,4.932912093,173.9465328,15.50871961,-21.51287718,2.172364984,-0.153198463,21.55509653,1.706585436,0,0,0,8.105653979,-1.003593742,-31.68254977,63.99169858,-22.60541234,146.4528771,0
34,0.05,0,0,1,1,0,15.51251275,142.1068809,4.898490226,0.046443503,,183.9015508,0.046593279,4.898294132,170.9637126,18.65005942,-26.59370307,4.022666545,-0.190577296,26.81349666,2.106480858,0,0,0,8.050533655,-1.485379802,-31.69018631,63.99163439,-22.60539399,146.5583907,0
35,0.1,0,0,1,1,0,13.68038603,142.1565054,4.852211276,0.081898601,,180.2259857,0.082082393,4.851963993,167.284144,21.87269528,-31.58407994,6.75588536,-0.226728794,32.19996223,2.50525274,0,0,0,7.973546442,-2.105825148,-31.69787397,63.99155408,-22.60536075,146.6923525,0
36.025,0.1,0,0,1,1,0,-8.896680914,142.1478913,4.807612127,0.114221832,,176.1724914,0.114429876,4.807395787,163.2268976,24.86985163,-35.89977716,10.21209133,-0.262903694,37.21019832,2.864463941,0,0,0,7.899478966,-2.772485161,-31.70142989,63.9914663,-22.60531112,146.8399974,0
37,0.1,0,0,1,1,0,12.74602663,142.3204823,4.747328431,0.140404095,,171.1104316,0.140500708,4.74702426,158.1613976,28.12050007,-40.0526358,15.05490967,-0.29800095,42.65652295,3.240948765,0,0,0,7.7950732,-3.534553148,-31.70894945,63.99135704,-22.60522925,147.029442,0
38.0167,0.1,0,0,1,1,0,21.40753576,142.4290651,4.679791929,0.157961428,,165.6966263,0.158019113,4.679464647,152.7438731,31.1463916,-43.20226612,20.6891164,-0.32329537,47.74718775,3.580072206,0,0,0,7.650497507,-4.291986063,-31.7187876,63.99124199,-22.60511766,147.2313048,0
39.025,0.15,0,0,1,1,0,17.60961355,142.543864,4.608483807,0.19458202,,159.6872937,0.194797656,4.608149096,146.7295417,34.04431326,-45.29093711,27.20320893,-0.342242048,52.6476196,3.892942821,0,0,0,7.490089403,-5.157657032,-31.7252894,63.99111964,-22.60496789,147.4488094,0
40.0083,0.15,0,0,1,1,0,17.74999573,142.6452637,4.550895355,0.22715071,,152.8261664,0.225962908,4.549830212,139.8610497,36.6737715,-45.88921147,34.40716693,-0.355487549,57.10964488,4.175032429,0,0,0,7.335903024,-6.359863831,-31.71003818,63.99099764,-22.60478145,147.6705265,0
41.025,0.15,0,0,1,1,0,-19.16481865,142.5997474,4.136562337,-0.029397643,,144.5691848,-0.029292888,4.136320729,131.5988834,38.87477565,-44.74214819,41.76847717,-0.287662844,60.8017776,4.11158256,0,0,0,6.073209014,-6.046715892,-30.30651999,63.99086901,-22.60453557,147.804899,0
42.0083,0.15,0,0,1,1,0,-12.47912112,142.5260734,4.043648066,-0.022878323,,136.2846835,-0.023135732,4.042391963,123.3152976,40.47515608,-41.80502558,48.585778,-0.288009335,63.42463884,4.196844311,0,0,0,5.836496762,-7.566182876,-33.6241523,63.99075219,-22.60425904,147.9839933,0
43.0167,0.15,0,0,1,1,0,-18.39984414,142.4371759,3.970643617,-0.09223735,,128.4020936,-0.092885661,3.970344598,115.4395003,41.93568776,-37.53025951,55.27359262,-0.297969245,65.89779303,4.291509357,0,0,0,5.861094133,-8.968460769,-35.66051987,63.99064248,-22.60393273,148.1649479,0
44.0083,0.15,-0.15,0,1,1,0,24.8218612,142.4875203,4.219472839,-0.171556151,,123.307025,-0.172441861,4.223265367,110.3782241,43.38144259,-32.91613374,61.24814333,-0.240997278,68.70753291,4.860618605,0,0,0,5.984772875,-6.719857823,-34.45784179,63.99054614,-22.60356959,148.3052639,0
45.025,0.15,-0.15,0,1,1,0,22.94011,142.894339,4.485503504,-0.196070015,,124.7424133,-0.197473297,4.486258319,111.844978,45.27012762,-30.32598415,66.3424277,-0.243706398,72.65865948,5.468272897,0,0,0,6.506088404,-2.462121804,-32.96834583,63.99045983,-22.60316847,148.4525703,0
46.0083,0.15,-0.15,0,1,1,0,16.51475356,143.0807897,4.54178456,-0.266965974,,126.3003714,-0.267927181,4.542438188,113.3830518,47.55994964,-30.87954147,70.4454349,-0.228958684,76.6917959,5.86499266,0,0,0,6.626121956,-0.835536627,-30.72329752,63.99037796,-22.60274947,148.6037698,0
47.0083,0.15,-0.2,0,1,1,0,20.14164826,143.2036056,5.632981732,-0.635964029,,124.5438897,-0.647287539,5.651378338,111.6122296,49.96408804,-31.82916738,74.55574118,-0.73827244,80.71654706,7.269141545,0,0,0,7.171730703,-0.840042379,-33.93226015,63.99029138,-22.60229429,148.8928977,0
48.0083,0.15,-0.2,0,1,1,0,238.7130453,145.4552285,8.938536551,-4.252252276,,122.6266229,-4.269941467,8.953550839,109.7011478,51.54803337,-30.73378602,77.85028601,-5.595211716,83.50548422,7.671864368,0,0,0,7.151286579,-0.738076448,-36.49108351,63.99020586,-22.60182309,151.8247642,0
49.0167,0.15,-0.2,0,1,1,0,472.0040253,152.4520254,12.30708726,-7.203756925,,120.9424989,-7.215128693,12.32355532,108.0124127,51.60659457,-26.6976777,79.19280273,-10.11368164,83.80008844,8.005413483,0,0,0,6.356686902,-0.483549773,-36.04012208,63.99012678,-22.60133304,159.6436263,0
50.0083,0.15,-0.2,0,1,1,0,665.0836793,163.3139565,15.19839059,-9.502942663,,117.7222301,-9.515503971,15.20956966,104.7791602,50.31447273,-20.80143773,78.43921747,-13.31689643,81.80168621,8.340466995,0,0,0,5.991220735,-0.373196938,-34.66907116,63.99006143,-22.60084145,171.4196261,0
51.0083,0.15,-0.2,0,0,1,0,786.834145,176.3550435,16.72918119,-12.71319874,,112.679485,-12.73183693,16.73243382,99.72668798,48.33312844,-13.64870514,76.66779291,-14.3305981,78.70032046,8.59190891,0,0,0,6.264668303,-0.393567906,-32.24988423,63.99001433,-22.60036254,185.3009869,0
52.0083,0.15,-0.2,0,0,1,0,798.6348077,189.5985001,16.35243084,-16.95095077,,106.3642509,-16.97235713,16.34573414,93.40500244,46.49438991,-5.226428651,75.27052324,-12.44864427,75.90197778,9.101483488,0,0,0,6.782373581,-0.334868454,-29.46909911,63.98998793,-22.59988601,199.0393733,0
53.2833,0.35,-0.2,0,0,1,0,690.771937,198.0483215,14.44656546,-19.42207626,,100.5514415,-19.4249284,14.42925706,87.58208167,45.70470229,2.053538853,74.98699936,-8.886419587,74.85521644,9.880182455,0,0,0,7.225578301,-0.220754559,-27.47091248,63.9899843,-22.59951593,207.6019569,0
54.0083,0.35,-0.2,0,0,1,0,319.4336392,204.6950645,8.636879422,-18.66847171,,88.86486183,-18.66987637,8.610077109,75.88514438,46.22520231,13.49598638,75.93846355,-1.425733455,76.2833806,11.31491895,0,0,0,7.588243922,-1.154148065,-26.43673707,63.99000951,-22.59894881,214.0319833,0
55.0083,0.35,-0.3,0,0,1,0,-196.2874902,203.5061637,5.19250306,-19.46414374,,79.49798095,-19.46820698,5.185052553,66.52677083,48.21092391,24.70906889,77.25427842,4.472280742,79.96891988,13.77787917,0,0,0,8.194218029,-1.488466114,-29.39299847,63.99006104,-22.59847132,212.3543838,0
56.025,0.45,-0.3,0,0,1,0,-373.2117875,197.9321513,3.935799885,-18.03022273,,71.44500362,-18.01004718,3.931100058,58.4790346,50.81395449,38.08934758,77.30866092,7.090622817,85.12718062,14.77985169,0,0,0,8.481518833,-1.516286018,-32.57403614,63.99014811,-22.59798111,206.3093756,0
57.0083,0.85,-0.3,0,0,1,0,-440.2823149,190.975936,4.281377795,-10.11197203,,63.23155759,-10.0303469,4.290356833,50.25552451,53.34603743,49.97211806,76.30859514,6.694988109,89.86955005,15.05557313,0,0,0,8.273004261,-2.244497848,-34.60661604,63.99026691,-22.5975101,199.371353,0
58.0167,0.8,-0.3,0,0,1,0,-356.3506684,184.5791307,8.751931188,4.951069569,,56.12384173,5.005575375,8.77902887,43.19535044,55.12472967,56.36202947,76.18944531,3.128151404,91.67023645,15.77589287,0,0,0,8.163370019,-4.655205518,-35.79268451,63.99041491,-22.59703168,194.2818486,0
59.0083,-0.2,-0.3,0,0,1,0,213.8831222,184.6706302,11.83744602,-1.467509586,,62.22142229,-1.562420196,11.84058726,49.39132458,55.68486049,57.74429534,76.46299359,-2.858684341,94.18546237,16.98063696,0,0,0,8.660457832,-1.886549773,-37.71195359,63.9905697,-22.59655957,194.0752849,0
60.0167,0.1,-0.3,0,0,1,0,346.5240824,189.7531272,16.13459886,-7.988472771,,72.28564907,-7.950409735,16.16105337,59.3800398,55.59651184,60.79902354,73.76039602,-8.541205788,93.08828793,15.86913896,0,0,0,8.621970006,2.555725559,-37.75109486,63.99073362,-22.59608747,199.9640122,0
61.0167,0.05,-0.3,0,0,1,0,682.6280041,200.7739988,19.65279645,-3.512085943,,65.53635094,-3.528699523,19.66732334,52.54725592,54.13046945,60.21125032,70.14507525,-14.72065184,91.86973035,16.85323155,0,0,0,8.946580948,-0.231459342,-36.4507292,63.99090061,-22.59563513,211.9755775,0
62.0083,0.05,-0.3,0,0,1,0,902.4336709,216.0057124,21.79353935,-13.35687138,,56.13336288,-13.41129375,21.7982337,43.17388301,51.84885009,61.27442364,63.42848999,-18.22123088,88.55289924,16.36524887,0,0,0,8.850909467,-0.987719578,-34.12581949,63.99106291,-22.59522353,228.5882901,0
63.0167,0.05,-0.2,0,0,1,0,1123.017668,233.5735044,21.52192292,-22.48585033,,50.79972021,-22.51837813,21.50881358,37.85507091,49.18255744,65.64528588,53.01151315,-17.5240732,84.91281989,14.11408177,0,0,0,8.790075611,-0.072421767,-30.2032007,63.99123729,-22.59485736,247.1879922,0
64.0083,0.15,-0.2,0,0,1,0,975.9385285,248.5102835,17.28720618,-26.90053009,,44.81309708,-26.91148201,17.26606077,31.84207821,47.6314439,71.45989238,43.12341545,-11.56009529,83.12693273,11.76146658,0,0,0,7.710658453,0.508645672,-26.55088045,63.99142441,-22.59455843,262.2748324,0
65.025,0.3,-0.2,0,0,1,0,593.0009431,257.1214608,11.38512188,-27.23354229,,34.00293151,-27.23160098,11.35062614,21.00839872,47.65523192,78.26964894,32.92791693,-4.410526401,84.07976873,12.2333748,0,0,0,7.893889683,-0.052446937,-26.99309064,63.9916305,-22.59431882,270.5705889,0
66.0167,0.35,-0.2,0,0,1,0,-87.2777976,258.7679309,4.393338584,-25.96835284,,21.34246901,-25.96423059,4.362265744,8.347399557,49.20067093,85.59254167,21.62040345,2.682687981,87.36603989,12.33600433,0,0,0,7.56206404,-1.277690497,-28.14396619,63.9918526,-22.59414889,271.6648326,0
67.0083,0.4,-0.2,0,0,1,0,-384.6831399,253.8757248,-0.626024657,-24.53696485,,10.59194346,-24.52463646,-0.642292395,357.6165576,52.01803697,92.91012057,8.020281733,8.987140974,92.59113726,12.16254205,0,0,0,7.333787147,-1.698930983,-30.422614,63.99209683,-22.59405508,265.9626273,0
68.0083,0.4,-0.25,0,0,1,0,-603.8956977,244.118197,-0.61459838,-20.96030803,,1.856162348,-20.93776026,-0.607154418,348.8903636,55.54926027,99.16685594,-7.174833407,11.83736555,98.8108883,14.39084144,0,0,0,7.895043097,-1.664226018,-35.51494709,63.99235991,-22.59405129,255.2875106,0
69.025,0.4,-0.25,0,0,1,0,-620.3814459,233.703061,1.62664848,-15.40676377,,354.4879796,-15.37792354,1.64300794,341.5271991,58.7224681,103.08353,-22.05036293,9.226736297,104.451204,14.90430582,0,0,0,7.768427738,-1.81225579,-38.72432521,63.99263942,-22.59414366,244.5436823,0
70.0083,0.4,-0.25,0,0,1,0,-350.9517412,227.4421947,5.883320293,-9.791465856,,348.3597052,-9.765339167,5.908181335,335.4106423,60.70727818,104.0130366,-33.66885457,2.509667472,107.7553105,15.62416277,0,0,0,7.776813022,-2.214264309,-41.02055951,63.99291856,-22.59431564,238.7278335,0
71.025,0.35,-0.25,0,0,1,0,265.7846291,228.7292821,11.62284272,-5.189058516,,344.6220817,-5.172916807,11.65134799,331.6931825,61.10380578,101.8971651,-41.14933605,-6.939652414,108.3760043,16.28989362,0,0,0,7.834604949,-2.251316764,-41.53732299,63.9932054,-22.59455473,241.107937,0
72.0167,0.25,-0.25,0,0,1,0,773.2781028,239.0070916,17.36617629,-2.531391215,,343.6182759,-2.528504624,17.39268323,330.7025896,59.84551516,97.35128014,-43.86556911,-16.06613569,106.3038515,16.86073492,0,0,0,7.972541608,-1.777929255,-40.20089535,63.99347587,-22.59481916,252.8397215,0
73.0167,0.2,-0.2,0,0,1,0,1046.290314,257.2997932,20.68024947,-1.445453343,,343.4776157,-1.445394191,20.69460949,330.5576938,57.33471255,91.38541965,-43.74626484,-22.1158869,102.3795262,15.20104515,0,0,0,7.464601056,-1.312177353,-35.27705713,63.99373369,-22.59509277,272.6511249,0
74.0083,0.2,-0.15,0,0,1,0,1248.870322,279.3951359,21.78377106,-2.048150408,,342.4258683,-2.052958132,21.7822597,329.499573,54.31810278,85.61018655,-42.89468477,-23.50766696,97.43699848,13.84569443,0,0,0,7.172860884,-1.078917912,-30.40169056,63.99397526,-22.59536229,296.1445529,0
75.0083,0.2,-0.15,0,0,1,0,1301.43705,300.9485656,21.36411771,-3.602425098,,340.4344002,-3.612689021,21.35891069,327.5040716,51.49423671,80.79527956,-42.85195587,-21.14740832,92.60738535,13.93971936,0,0,0,7.275328562,-1.081554517,-28.48274738,63.99420061,-22.59562659,318.6445079,0
76.0083,0.15,-0.15,0,0,1,0,1216.852618,319.7948584,19.46616969,-6.095576786,,337.9661512,-6.110203923,19.45324811,325.0331193,49.13270151,76.51846237,-44.05047902,-17.12070552,88.6320931,13.89835123,0,0,0,7.306108815,-1.162499014,-26.73918129,63.99441538,-22.59589644,338.1428122,0
77.0083,0.15,-0.15,0,0,1,0,1003.200825,334.3086574,16.0152261,-10.19179641,,335.2915959,-10.2109892,15.99516054,322.356686,47.76245721,73.01364469,-47.14659522,-11.59917886,86.45192241,13.80118717,0,0,0,7.357928286,-0.682026124,-25.59560482,63.99461956,-22.59617937,352.8346291,0
78.0167,0.15,-0.15,0,0,1,0,626.5422637,343.202143,11.42348693,-13.74825389,,331.49081,-13.76377272,11.39984708,318.5450661,47.79459852,70.12574353,-52.51856784,-5.173480366,86.62627524,13.51972366,0,0,0,7.352960915,-0.487375984,-25.61531321,63.99481677,-22.59649125,361.54751,0
79.0083,0.15,-0.15,0,0,1,0,-17.80922997,345.9702413,6.579858808,-16.71425446,,326.0745177,-16.72792062,6.556908161,313.1193423,49.28362299,67.34369233,-60.05182645,1.074647547,89.15397579,13.18399695,0,0,0,7.266533637,-0.501628731,-26.83659897,63.99500329,-22.59683777,363.7508147,0
80,0.15,-0.15,0,0,1,0,-277.1284107,343.0772279,2.404358408,-19.25608,,319.594246,-19.26688788,2.386949107,306.6348041,52.00238123,63.63949906,-69.82050036,6.515898174,93.64936424,12.94474414,0,0,0,7.164964528,-0.555976831,-28.80529871,63.99518129,-22.59723779,360.099387,0
81.0167,0.15,-0.15,0,0,1,0,-619.2890528,335.3021983,-0.414532515,-20.97948871,,312.5196087,-20.98487522,-0.42374186,299.5582041,55.70219669,57.98937705,-81.64831387,10.66918293,99.70496832,12.91350118,0,0,0,7.110247592,-0.549069846,-31.47003504,63.99535101,-22.59771659,351.3837841,0
82.0167,0.15,-0.15,0,0,1,0,-676.0275446,324.4572196,-1.380436808,-21.50131597,,305.2288819,-21.50132191,-1.380658435,292.2651656,59.74944567,49.98404149,-94.05150867,12.43325873,106.2464924,13.08196357,0,0,0,7.092728421,-0.542696102,-34.73098468,63.99549939,-22.59826359,339.7462765,0
83.0167,0.15,-0.15,0,0,1,0,-689.7420939,313.329656,-0.547285706,-21.16543666,,297.7602087,-21.16259059,-0.539087303,284.7952678,63.55954502,39.44936312,-105.6062242,11.08217274,112.2781212,13.38374335,0,0,0,7.109815442,-0.594004837,-38.13064628,63.99562039,-22.59887555,328.0272464,0
84.0167,0.15,-0.15,0,0,1,0,-551.0126681,304.5341852,1.600245578,-20.46529476,,290.3506543,-20.46139077,1.613123382,277.3874085,66.71591059,26.56607654,-114.9280418,6.686369763,117.1551314,13.40216267,0,0,0,7.063564439,-0.655625912,-40.48593079,63.99570972,-22.5995522,319.1605859,0
85,0.2,-0.15,0,0,1,0,-141.8475612,300.480062,4.644379521,-18.43011618,,282.8208739,-18.4163104,4.660520102,269.8553739,68.95151747,12.28354388,-120.784668,0.071816614,120.3481845,13.3537611,0,0,0,6.945756572,-0.940458488,-41.6783927,63.99576303,-22.60028823,315.6726901,0
86.3833,0.2,-0.15,0,0,1,0,34.09847187,300.6196165,6.114551276,-17.38092709,,279.6092788,-17.37066266,6.131997713,266.6467374,69.52644286,6.340483085,-121.9489669,-3.217693126,121.0185975,13.33925575,0,0,0,6.874571052,-1.151757698,-41.92737404,63.9957739,-22.6006096,316.3359601,0
87.0333,0.2,-0.15,0,0,1,0,12.05908201,300.9774713,10.06260578,-15.65976549,,273.2243702,-15.65167945,10.0832109,260.2726672,69.9489031,-6.848668696,-121.6099423,-11.44817526,121.1538369,13.27094516,0,0,0,6.841058405,-1.220222821,-41.92234256,63.99577297,-22.6013701,323.6089379,0
88.0167,0.2,-0.15,0,0,1,0,1161.676324,333.0045846,17.2587469,-12.92167703,,264.6754089,-12.91560544,17.2811211,251.7255971,67.93976344,-23.48476381,-113.061619,-24.78537205,116.9074921,13.08953887,0,0,0,7.040326461,-1.107706391,-41.09553621,63.99570382,-22.60255293,352.7319107,0
89.0167,0.25,-0.15,0,0,1,0,1432.589954,359.0058534,21.87060037,-10.92710248,,259.1217238,-10.91861269,21.89252605,246.1695912,64.94970768,-30.14315761,-103.6806327,-31.74479788,111.1389546,12.97140285,0,0,0,7.13495362,-1.378180077,-39.11508401,63.99562969,-22.60322912,381.0676393,0
90.0083,0.25,-0.15,0,0,1,0,1706.681535,390.594408,25.95936348,-10.08058014,,254.1837353,-10.0789557,25.97611843,241.2408167,60.73932841,-33.76655801,-92.63215894,-35.9337347,103.3459522,12.83909837,0,0,0,7.217642421,-1.414477503,-35.78311775,63.99554238,-22.60383588,414.7921892,0
91.0083,0.25,-0.15,0,0,1,0,1899.241158,426.7905949,28.55707475,-9.958710113,,250.2786874,-9.959525265,28.56497911,237.3384471,55.6971732,-35.48365839,-81.45609995,-36.15941017,94.33683462,12.47127567,0,0,0,7.276065244,-1.149094252,-31.4215051,63.9954464,-22.60438209,451.377201,0
92.1917,0.25,-0.15,0,0,1,0,1959.728085,452.5015545,29.14700943,-10.38377707,,247.3461711,-10.38888913,29.14675534,234.4032238,51.90471141,-36.14808179,-74.11787971,-33.88319371,87.5157473,12.32380696,0,0,0,7.316836656,-1.0215004,-28.52866283,63.99537442,-22.60473711,477.1008984,0
93,0.25,-0.15,0,0,1,0,1916.593264,490.9715255,26.87652335,-12.87145232,,241.5249284,-12.8849229,26.85838657,228.5772094,46.00154868,-37.7985522,-63.69966797,-25.96656571,76.65400759,12.54544466,0,0,0,7.432491375,-0.869905427,-24.07427896,63.99524744,-22.60527531,515.1552229,0
94.0083,0.25,-0.15,0,0,1,0,1631.385995,513.1567316,21.403489,-16.03923136,,236.299416,-16.05587171,21.36897906,223.3481519,42.88015964,-40.90697795,-57.56570773,-16.75514431,70.60577279,13.06986849,0,0,0,7.516369327,-0.740891445,-21.9550102,63.99514016,-22.60565224,536.6102457,0
95.0083,0.25,-0.15,0,0,1,0,1117.786036,525.6200874,13.12727658,-19.39285285,,230.3854215,-19.40813591,13.08242269,217.42845,42.09902184,-46.47175884,-52.74768198,-6.176012646,68.57036622,13.58254846,0,0,0,7.490607445,-0.644038002,-21.46497169,63.99502118,-22.60599553,548.1000467,0
96.0167,0.25,-0.15,0,0,1,0,-98.14419899,527.3270358,3.644883107,-21.99494257,,223.3904667,-22.00423095,3.600011569,210.4263259,44.09989469,-54.96383628,-48.2077662,5.007010774,71.35204348,13.95908869,0,0,0,7.274374133,-0.665361571,-22.61939614,63.99488193,-22.60631302,548.6189692,0
97.0167,0.3,-0.15,0,0,1,0,-607.6985303,518.1448553,-4.510414657,-23.04293946,,215.4060125,-23.04140335,-4.543026631,202.4360438,48.53332187,-66.20423857,-42.58360187,15.34860307,78.41750217,13.95094535,0,0,0,7.011232813,-0.708685746,-25.9353036,63.99471689,-22.60659707,538.1728346,0
98.0167,0.3,-0.2,0,0,1,0,-1006.047991,499.4627999,-8.194727876,-20.84457066,,206.3253555,-20.83055779,-8.194571161,193.3492651,54.43261064,-79.57690558,-34.60021071,22.67354359,87.77517539,15.03417396,0,0,0,7.218244296,-1.296636784,-32.39258481,63.9945181,-22.60683933,518.5410429,0
99.0083,0.3,-0.25,0,0,1,0,-1233.880508,476.5113202,-5.688678485,-17.73038289,,197.8374852,-17.71353122,-5.667943472,184.8735473,60.02358647,-93.24629656,-23.28533128,22.26527482,96.62250548,16.82773612,0,0,0,7.864585566,-1.545890883,-40.41466234,63.99428377,-22.60702002,495.2921006,0
100.017,0.3,-0.25,0,0,1,0,-1173.200224,456.7737185,-0.481239884,-13.67767932,,191.1102656,-13.65626721,-0.45029873,178.1552542,64.19764324,-103.8458166,-10.28019239,14.07098374,103.5684531,16.09775878,0,0,0,7.802919051,-1.629883463,-45.06702405,63.99401118,-22.60712561,476.1551526,0
101.008,0.35,-0.25,0,0,1,0,-698.9248406,447.337661,6.47630315,-8.020369232,,185.4292329,-7.991718965,6.513311848,172.4803585,66.23561843,-108.4738221,0.604317198,1.050781878,106.8062131,15.01338792,0,0,0,7.740694678,-2.149635431,-46.91473401,63.99372206,-22.60715402,468.0610324,0
102.017,0.35,-0.25,0,0,1,0,479.2332269,451.6961145,14.55484018,-2.862997924,,181.8602102,-2.839752391,14.5948327,168.9328195,65.86406807,-106.5941702,7.08917823,-13.91537613,106.0595419,13.88964955,0,0,0,7.73986054,-2.468924135,-46.44723525,63.99342417,-22.60712763,474.2038576,0
103,0.4,-0.25,0,0,1,0,1005.267299,470.1756428,22.84124563,3.723344441,,181.1269292,3.756075045,22.88140791,168.2140767,63.17071953,-99.29635244,7.85166099,-26.92396242,101.5004644,12.75878146,0,0,0,7.835570666,-2.629684028,-43.79393272,63.99314394,-22.60707861,494.3747572,0
104.008,0.4,-0.2,0,0,1,0,1467.358817,500.036121,28.90722865,10.07252319,,182.8915291,10.10181615,28.92509731,169.9936958,58.552392,-88.87541873,3.427010915,-34.64063019,93.88085811,9.993466143,0,0,0,7.313856357,-2.557680289,-36.18372116,63.99288637,-22.60704191,525.5566899,0
105,0.4,-0.15,0,0,1,0,1746.52249,534.0849486,31.9306694,15.89675058,,186.8922901,15.92169056,31.92966787,174.0035047,53.27109134,-79.25690226,-3.128237554,-34.66437388,84.95298045,8.506641496,0,0,0,7.366241393,-2.386990885,-30.43486474,63.99265838,-22.60704022,560.0827186,0
106.008,0.4,-0.15,0,0,1,0,1807.457204,566.454816,30.57093622,20.30446568,,191.5101461,20.32117524,30.56025445,178.6261478,48.23456427,-71.98321278,-9.99096928,-28.39337984,76.19674199,7.20170897,0,0,0,7.046953606,-2.284534669,-24.85131627,63.99244863,-22.60708186,592.323515,0
107.008,0.4,-0.15,0,0,1,0,1631.130327,590.8815077,26.71712563,22.54089066,,196.4498674,22.54600334,26.6902832,183.5647432,44.54589413,-67.13524589,-16.50452723,-19.41617523,69.50373155,7.48508821,0,0,0,7.136183916,-2.2600495,-22.24358489,63.99225883,-22.60716445,616.2328021,0
108.008,0.4,-0.15,0,0,1,0,1218.86987,605.7697092,19.79964853,22.58899741,,200.9591228,22.5853516,19.75979425,188.0713474,42.95167779,-64.87994618,-22.49883743,-9.059367501,66.49058068,8.108967933,0,0,0,7.134289304,-2.251469281,-21.02180859,63.99208035,-22.60728486,630.2918117,0
109,0.4,-0.15,0,0,1,0,455.0564594,610.4629673,11.13341793,21.53822289,,205.3371133,21.53295446,11.09042517,192.450688,43.89462539,-65.2339888,-28.49029361,1.449785824,68.2591026,8.771584809,0,0,0,6.987418583,-2.233591652,-21.65543213,63.99190445,-22.6074419,633.9167057,0
110.017,0.4,-0.15,0,0,1,0,-438.3014208,605.0295097,3.000884039,20.99020741,,210.3899644,20.99131157,2.968061251,197.5086983,47.29373652,-67.88428114,-35.62481973,11.11186925,74.78045154,9.153876862,0,0,0,6.743841828,-2.191619993,-24.0680084,63.99171985,-22.60764382,627.253558,0
111,0.35,-0.15,0,0,1,0,-903.7981949,591.3663368,-2.142711028,21.85828367,,216.0736254,21.86135426,-2.161278332,203.1978184,52.21610163,-71.64419441,-44.65652804,18.42033619,84.07761891,9.387492701,0,0,0,6.654493929,-2.232151844,-27.59944668,63.99153247,-22.60788812,612.3673303,0
112.008,0.35,-0.15,0,0,1,0,-1120.56031,570.6735296,-4.514884459,23.55179772,,222.8258277,23.5655641,-4.518545526,209.9543989,58.06782497,-75.14466328,-57.02425353,22.75024907,95.08133136,9.278339082,0,0,0,6.568510451,-2.234894568,-32.19408766,63.99132829,-22.60820802,590.9321118,0
113.008,0.3,-0.15,0,0,1,0,-1274.332648,547.7328399,-3.95991879,26.76897546,,230.1301954,26.77958188,-3.95290038,217.2665509,63.68398189,-75.7956277,-72.42970133,23.16676194,105.5273309,8.929409705,0,0,0,6.563590552,-2.576885426,-37.19055221,63.99112298,-22.60860587,567.621172,0
114.008,0.3,-0.15,0,0,1,0,-1290.182868,525.5088825,-2.323978101,29.7521862,,239.0204245,29.77184739,-2.315207221,226.1636044,68.70476839,-71.50762575,-90.11903905,20.33114704,115.2588191,8.236274715,0,0,0,6.336606789,-2.577280958,-39.68900419,63.99091887,-22.60911547,545.3510018,0
115,0.3,-0.15,0,0,1,0,-1196.598669,506.6910041,-0.434111223,34.43721896,,248.0816423,34.46176427,-0.424160404,235.2244896,72.84495508,-61.4838493,-107.3150905,17.20052039,123.3399138,7.371318352,0,0,0,6.041743068,-2.977355075,-40.90751627,63.99073891,-22.60971991,526.7028857,0
116.008,0.25,-0.15,0,0,1,0,-1039.137348,490.2664706,1.644153915,39.01869952,,257.8014652,39.02924382,1.651602189,244.952244,76.40814925,-44.71730249,-123.4675816,14.04997989,130.3289404,6.432007203,0,0,0,5.769229688,-3.819983229,-42.30024546,63.99058999,-22.61045138,510.6455109,0
117,0.15,-0.15,0,0,1,0,-819.2280257,477.9972752,1.950708967,39.40636803,,269.2112231,39.41110606,1.952023852,256.3714604,79.31646562,-23.60839237,-135.6692218,10.7291857,136.9668374,6.172087404,0,0,0,5.675084745,-3.315627465,-43.35546271,63.99049731,-22.61124625,498.3583716,0
118,1.39E-17,-0.15,0,0,1,0,-547.5716284,469.2542707,1.86055339,35.69860634,,281.963755,35.67396235,1.859689618,269.1339925,81.90244494,1.222583907,-143.4651944,6.32953612,143.1493772,6.942825876,0,0,0,5.979683254,-1.092584796,-45.53197363,63.99046613,-22.61211749,489.605716,0
119.017,1.39E-17,-0.15,0,0,1,0,-69.89885347,465.5893586,3.895722936,33.20341825,,293.5347193,33.1950818,3.915369383,280.676957,83.97241098,27.62468428,-145.5160936,-0.641685386,147.81301,7.82547297,0,0,0,6.160663836,-0.419005496,-47.70719529,63.99050587,-22.61303533,486.5347817,0
120.033,1.39E-17,-0.15,0,0,1,0,10.33025141,467.0118221,8.336437156,30.33356414,,301.894006,30.31550926,8.35800063,289.0349314,84.74005061,51.38455459,-140.7759305,-10.09839789,149.7135664,8.833385976,0,0,0,5.949049804,-1.15312896,-48.82115711,63.99061177,-22.61390736,491.6453262,0
121.017,1.39E-17,-0.15,0,0,1,0,877.2088749,484.6167948,12.7580838,27.28249958,,311.2855532,27.2727785,12.77973196,298.4270075,84.06163976,71.51778743,-129.6768276,-21.67773941,149.2129439,9.792068611,0,0,0,6.12012582,-0.729801658,-48.21848837,63.99078483,-22.61477314,508.0617723,0
122.017,1.39E-17,-0.15,0,0,1,0,1315.533221,510.4886592,17.50600216,25.63557489,,319.5146046,25.62763177,17.52970395,306.6477128,81.9927836,85.91707424,-114.279866,-32.38056181,146.0859446,10.67613688,0,0,0,6.272643948,-0.722959565,-46.51702238,63.99100089,-22.61553449,535.3888829,0
123,1.39E-17,-0.15,0,0,1,0,1731.863117,545.5904142,22.13086164,23.92992427,,326.8438475,23.9216549,22.15258196,313.9751864,78.63027373,94.38203649,-96.63412839,-41.02936715,140.5759393,11.48802591,0,0,0,6.422688992,-0.786790605,-43.69562294,63.99124406,-22.61618089,571.8952718,0
124.017,-0.05,-0.15,0,0,1,0,2109.377663,589.7385731,26.64161342,21.37485757,,334.8482579,21.36142062,26.66205849,321.9865721,73.9103785,97.38631518,-77.63097003,-47.55561934,132.6335621,12.89702236,0,0,0,6.815333739,-0.330597723,-41.31664707,63.99151137,-22.61673266,617.3368471,0
125,-0.05,-0.15,0,0,1,0,2411.452081,637.7364957,31.07700196,19.39255431,,342.3168233,19.38285316,31.10091518,329.4421265,68.23343659,95.17923661,-59.78990714,-51.60590447,122.8644586,14.09274514,0,0,0,7.19588751,-0.031908459,-39.11714652,63.99177069,-22.6171532,666.4956239,0
126,-0.05,-0.15,0,0,1,0,2649.464687,689.5926071,36.24583937,16.57323056,,347.8798007,16.55543174,36.26947397,334.995254,61.31634323,88.36225651,-43.18403309,-53.21327447,110.7611905,15.1458739,0,0,0,7.46332093,-0.277396076,-35.33173597,63.992022,-22.61747253,719.4198302,0
127,-0.05,-0.1,0,0,1,0,2789.656537,741.1852599,39.12846451,11.92528825,,351.7060467,11.89663837,39.12583068,338.8041201,53.50224375,79.02472522,-30.89686833,-49.89200301,97.30629082,14.56768176,0,0,0,7.245115505,-0.324929565,-27.45869011,63.99225039,-22.61770054,771.6891753,0
128,-0.05,0.05,0,0,1,0,2767.77582,786.9196186,34.89310036,4.820297711,,352.3261895,4.780296283,34.84828037,339.4044667,46.13663763,72.29182805,-25.02491345,-39.47454252,85.31607142,11.0960342,0,0,0,6.62017491,-0.346270265,-16.80377368,63.99245568,-22.61787149,817.2815181,0
129.258,-0.05,0.05,0,0,1,0,2565.369403,814.6767897,26.55355899,-2.177311532,,351.3135803,-2.220866996,26.49950491,338.3885532,41.86411992,70.62285672,-24.3778919,-26.36177242,78.55777997,9.832494708,0,0,0,6.440538195,-0.354751871,-14.03478213,63.99261303,-22.61799509,844.227721,0
130.017,-0.05,0.05,0,0,1,0,1906.404292,836.4888443,10.94018811,-13.02409468,,349.3393002,-13.06605896,10.87007309,336.4107773,40.01986351,71.14209968,-27.48792542,-6.292416091,76.0168081,8.71910516,0,0,0,6.536366733,-0.114493643,-14.54053575,63.99284618,-22.61818771,864.3610923,0
131.017,-0.05,0.05,0,0,1,0,765.5585638,836.2639221,-3.505037241,-20.76196846,,346.7081271,-20.79472813,-3.573210122,333.7698668,43.44424995,74.24261833,-33.73366308,11.3992887,82.05908482,6.793659145,0,0,0,6.175309535,0.127121055,-14.86028194,63.99304467,-22.6183772,862.2249356,0
132.008,-0.05,-0.1,0,0,1,0,-967.2849921,818.2200283,-14.56618142,-26.24588949,,341.5505319,-26.26641029,-14.59902037,328.5883032,50.871356,78.66057882,-43.71392213,29.48471282,94.44407167,6.895937235,0,0,0,5.677139557,0.238144084,-19.87404318,63.99325392,-22.61861607,841.8338624,0
133,-0.05,-0.15,0,0,1,0,-1558.817167,785.5341752,-15.84797899,-29.49396292,,332.2940849,-29.50813727,-15.84859174,319.3182304,59.70454075,81.48368864,-61.77263651,39.11034247,108.8606937,11.57541144,0,0,0,6.965807158,0.493423314,-34.52706764,63.99347036,-22.61893396,807.3356989,0
134,-0.05,-0.15,0,0,1,0,-1929.823811,746.0764832,-14.8465615,-31.62304706,,322.475405,-31.63022797,-14.8370591,309.4935946,68.25135815,78.7726517,-85.88118451,41.50612441,123.1213193,12.02421146,0,0,0,6.680810702,0.833671755,-40.52894309,63.99369124,-22.61939206,766.8074389,0
135.008,-0.05,-0.15,0,0,1,0,-2128.215594,705.4468008,-12.77353653,-32.90379345,,312.0482111,-32.90987229,-12.76336268,299.0665473,75.99440562,69.06688344,-110.5313489,40.27857273,135.8472887,12.46100304,0,0,0,6.251557127,0.979773021,-43.58303241,63.99389694,-22.6200092,725.5366939,0
136.008,-0.05,-0.15,0,0,1,0,-2185.722874,667.0091676,-10.13603341,-34.22910747,,301.7062804,-34.23537969,-10.11913211,288.7234576,82.75500723,52.32011738,-132.8404019,36.2412795,146.7542875,12.66913,0,0,0,5.821909298,1.163360722,-47.28192603,63.99406621,-22.62077476,686.8466348,0
137,1.39E-17,-0.15,0,0,1,0,-2087.987537,634.8993473,-6.669561874,-33.53775073,,290.3725748,-33.53741616,-6.651306777,277.379538,88.03006823,28.98682514,-150.2116646,27.85576877,154.8893328,13.54357571,0,0,0,5.778933963,0.575415919,-52.33803719,63.99417727,-22.62164403,655.0187775,0
138,0.15,-0.15,0,0,1,0,-1760.934728,612.1542263,-2.663005878,-31.9717131,,277.8817826,-31.95930815,-2.641799766,264.8835169,91.8283372,-0.23661974,-160.2690123,15.1698489,160.1810436,14.05429489,0,0,0,5.614524656,-0.757421049,-55.90861928,63.99421783,-22.62261532,633.2211533,0
139.017,0.2,-0.15,0,0,1,0,-1085.331544,603.0739652,2.332295195,-28.35996576,,264.7224976,-28.34284392,2.360470557,251.7294018,93.45165711,-31.45795989,-159.5126298,-1.496647942,161.2580185,14.09154573,0,0,0,5.11123356,-2.767318606,-58.09013841,63.99417383,-22.62363369,625.9337934,0
140,0.3,-0.15,0,0,1,0,591.1185199,611.0001239,8.846077601,-23.52117319,,253.596675,-23.48687266,8.879475678,240.6054987,92.77452536,-57.37718558,-148.3394464,-19.73658082,158.5642549,13.49261043,0,0,0,5.042685961,-3.71287418,-57.29785713,63.9940518,-22.62458873,636.2173788,0
141,0.3,-0.15,0,0,1,0,1289.517852,636.8936031,16.29206753,-18.94835629,,243.8474753,-18.93032099,16.33145983,230.8847274,89.80489736,-73.59735371,-129.9052565,-38.22626228,152.0306888,12.52161023,0,0,0,5.168642947,-4.271723264,-54.59473444,63.99387204,-22.6254508,664.8807058,0
142.017,0.3,-0.15,0,0,1,0,1959.100612,681.6540197,24.54604287,-14.53453942,,237.427404,-14.5130405,24.5840063,224.4726046,84.79252785,-79.4787429,-108.0998246,-53.98952877,142.9013285,11.19147182,0,0,0,5.650510289,-3.355689173,-49.84099611,63.99365669,-22.62620466,711.8485726,0
143.008,0.3,-0.15,0,0,1,0,2513.663927,738.2601397,31.88184174,-10.88450475,,231.7887597,-10.86968557,31.91600407,218.8414119,78.22825545,-76.32174537,-87.56164511,-64.19612279,131.0118084,9.696372601,0,0,0,6.041863743,-3.048579228,-43.99931892,63.99344365,-22.62680813,770.6853407,0
144.017,0.3,0.4,0,0,1,0,2956.900825,803.4996923,34.66016099,-7.814003477,,228.0629134,-7.794934851,34.58937937,215.1402498,70.37899202,-68.68437167,-70.38692287,-66.53258623,117.3606602,2.555476725,0,0,0,7.134483984,-2.469566385,-26.32997751,63.99324337,-22.62730044,837.4063379,0
145,0.3,0.85,0,0,1,0,3046.867022,857.7984335,2.553992874,-1.316769723,,229.8727504,-1.27889754,2.469492298,216.9616674,65.0794586,-73.87092344,-71.54076979,-35.47088314,103.4753311,-30.74899884,0,0,0,5.635040188,-1.324246521,4.905299798,63.99305299,-22.62773023,889.6310685,0
146.008,0.3,0.7,0,0,1,0,2426.707392,878.337143,-9.551284846,9.051082537,,229.8998865,9.111766069,-9.62779427,216.9670633,65.42656401,-79.62766715,-74.3722883,2.326030098,107.2082099,-17.45452181,0,0,0,6.823637874,-0.579369554,6.125157247,63.99284097,-22.62818948,906.3997016,0
147.008,0.25,0.65,0,0,1,0,230.9967641,860.4084792,-27.36838172,20.59106504,,223.9848282,20.64103376,-27.43075242,211.0358073,71.68778716,-84.28982747,-74.15400358,42.40771968,117.5727491,-19.47290009,0,0,0,3.87942485,-1.669587102,7.380410829,63.99261644,-22.62865553,883.9230824,0
148.025,0.25,0.25,0,0,1,0,-1754.379331,817.5044151,-33.79889437,28.80133192,,225.3998101,28.84861872,-33.84668539,212.5001024,80.86509779,-86.08720122,-72.1097345,77.18976261,135.4720014,-5.195698351,0,0,0,0.985511676,-1.644011169,-7.13073037,63.99238229,-22.62910909,821.7897607,0
149.017,0.25,-0.25,0,0,1,0,-3189.21727,717.5520724,-37.36962527,38.15956645,,231.2850805,38.17551618,-37.31588554,218.4854608,93.35356653,-89.77309367,-82.57137576,101.4182017,158.2349532,0.012763788,0,0,0,0.746764614,-1.459073983,-27.92176426,63.9921427,-22.62958246,731.4691116,0
150.017,0.25,-0.9,0,0,1,0,-3747.521232,628.2429246,-3.19350005,35.59898928,,263.0986843,35.60975396,-3.067118764,250.3399947,97.22774999,-60.7084764,-147.470885,52.03592259,161.8548318,39.71396252,0,0,0,21.22089765,-5.412903304,-136.0412614,63.99192068,-22.63028244,645.4208597,0
151,0.25,-0.9,0,0,1,0,-3075.403637,606.4260535,21.50104874,44.02970449,,292.0955585,44.10656003,21.60261387,279.3931914,90.89624304,11.42085614,-158.1281286,-19.96292844,154.1325834,38.52758938,0,0,0,20.37211422,-4.533186187,-119.8919837,63.99185063,-22.63125628,631.1462568,0
152.008,0.25,-0.85,0,0,1,0,-490.4043197,643.139846,35.69248625,76.22595201,,330.5775588,66.33915953,35.71648022,317.9152671,79.32683992,77.38729179,-105.7168486,-55.14097882,136.348792,36.44407399,0,0,0,18.13176458,-4.188125462,-92.77496343,63.99197879,-22.6321061,672.9440216,0
153.017,0.25,-0.05,0,0,1,0,1955.744307,697.8400401,31.82890608,112.4229503,,356.5801348,81.83301806,31.77793696,343.6358953,68.57842762,107.4739988,-40.90059913,-48.40994744,122.9521139,11.60364799,0,0,0,6.126611971,-2.989737064,-38.28271781,63.99224149,-22.63255292,728.1407575,0
154.017,0.2,-0.05,0,0,1,0,2069.955183,736.1773009,20.88166409,121.6159813,,6.136417062,85.38972533,20.81398154,353.3055453,64.81931274,114.7871102,-19.00555637,-23.8568493,117.1125877,7.003879317,0,0,0,5.598373771,-3.219138462,-23.8113593,63.99254553,-22.63273787,764.8030988,0
155.017,-1,-0.05,0,0,1,0,1492.657801,750.8332267,1.507148642,105.5735892,,18.67033432,68.71713215,1.368433611,5.853766146,65.24550571,119.2241646,4.619101887,1.382662636,119.0065846,8.58261924,0,0,0,6.562117776,-1.335353146,-23.87025135,63.99286566,-22.63278352,776.3319115,0
156,-1,-0.05,0,0,1,0,-717.0251556,738.6422766,-16.75504523,62.49350893,,43.32477568,25.84264079,-16.75595096,30.55187613,69.15136502,121.0179581,24.62399649,21.59015492,118.0017744,5.888989507,0,0,0,5.747055618,7.617577527,-24.81643432,63.99318952,-22.63269466,765.181268,0
157.25,-1,-0.05,0,0,1,0,-1143.111593,720.1034669,-11.95092572,40.19270461,,49.80199662,3.676409741,-11.90654484,36.86798982,72.80999352,121.8047693,39.04788306,28.53124547,124.1598383,5.655929308,0,0,0,5.351345239,7.469928983,-30.27320694,63.99344115,-22.6325434,745.9407128,0
158.008,-1,-0.2,0,0,1,0,-1562.870953,685.725552,1.395334238,-6.633418858,,39.33152419,-43.01070902,1.466817965,26.33263348,79.09758005,133.4406765,39.32580667,27.37003585,136.2927474,6.237303961,0,0,0,5.604350006,8.600796984,-42.5667428,63.99387346,-22.63221306,710.1329587,0
159.017,-0.6,-0.2,0,0,1,0,-1610.08105,657.2737201,5.46414052,-36.87021201,,18.56455215,-72.97117681,5.410033067,5.48368847,82.50616216,145.2466519,8.695443474,28.68477629,142.0606571,7.382568101,0,0,0,5.927769379,10.43494835,-47.9269088,63.99425919,-22.63205097,683.300036,0
160,-0.55,-0.2,0,0,1,0,-1700.762378,628.6758936,-9.441170529,-135.3844206,,354.3727403,-90.49788603,-9.498154514,341.3078653,87.077591,144.571185,-38.36912351,45.8935588,154.7695128,9.807578934,0,0,0,4.73890818,5.729122457,-51.01561618,63.99465289,-22.63213709,648.6639787,0
161.017,-0.55,-0.2,0,0,1,0,-2484.491805,568.1851569,-19.7916356,-151.4317275,,329.4350268,-106.4809088,-19.858901,316.3546368,94.70773564,120.1959199,-86.16155695,81.23491604,165.3320504,12.20068354,0,0,0,4.00825807,9.396101872,-55.45469963,63.9950273,-22.63253492,585.3498208,0
162.008,-0.05,-0.2,0,0,1,0,-3467.161935,473.3986934,-37.93473298,-154.8485916,,303.2151787,-109.7637784,-38.04124013,290.12639,105.0134795,67.9889622,-116.6189043,125.5729524,182.0431543,16.56279549,0,0,0,3.648954644,10.40865258,-70.92947272,63.99528991,-22.63317307,483.8102248,0
163,0.2,-0.35,0,0,1,0,-4602.853222,337.6733894,-58.30388393,-112.722168,,261.7640369,-67.58171042,-58.28759958,248.4894451,117.6336699,-15.55668296,-122.4833434,161.312046,200.1259114,21.65570068,0,0,0,0.7170568,-8.894771406,-98.87333863,63.99537,-22.63392531,339.4894775,0
164.008,0.2,-1,0,0,1,0,-5499.960433,187.7375679,-27.63572617,-74.23188712,,220.5882028,-29.41105095,-27.54994994,207.6055261,116.9234312,-106.3679312,-95.76116849,138.3459824,186.9010024,68.46128001,0,0,0,-5.569528251,-0.337284676,-88.15771462,63.99518214,-22.63462254,181.7120494,0
165,0.2,-1,0,0,1,0,-5216.831064,123.3480984,31.54403807,-77.22923312,,212.43889,-32.9418557,31.70526733,199.5274093,72.3721454,-110.9848404,-46.50720697,-10.16305059,107.5574267,49.3970691,0,0,0,3.227839768,10.21674736,-20.25877615,63.99487785,-22.63503303,131.7213913,0
166.167,0.2,-1,0,0,1,0,-4470.803712,119.6842367,36.71169927,-120.5616733,,200.8844853,-76.17504581,36.71212023,187.8162002,65.74000198,-102.3284006,-38.14999356,-2.254799327,86.77641332,37.97824387,0,0,0,2.945571863,23.30355769,-17.55176046,63.99466122,-22.63522942,135.6968076,0
167.008,0.2,-1,0,0,1,0,-3069.848974,120.9717511,34.8060178,-90.36223877,,202.1377839,-45.7725476,34.64647115,189.3300933,52.91565267,-83.8238103,-22.18188936,5.980988946,67.60573423,43.60462148,0,0,0,3.94928867,19.27380738,-22.22953385,63.99433483,-22.63546208,131.5616366,0
168.017,0.2,-1,0,0,1,0,-2064.507869,118.8076674,9.340723979,-68.38725923,,164.859884,-24.34006282,9.445552971,151.0535367,43.97775251,-70.23673257,-10.78138183,-5.446643766,56.37540903,21.41370273,0,0,0,-0.651493524,-0.526785193,-69.64860493,63.99412152,-22.63558011,127.4369393,0
169.008,0.2,-1,0,0,1,0,-844.7750472,120.1182802,28.46001005,-82.03308512,,108.4044375,-37.98643714,28.63639623,95.57998098,31.72018599,-49.50899327,2.13984569,4.466053729,3.954002138,35.91128321,0,0,0,8.217804973,-8.75171922,-17.96635573,63.99395759,-22.63559676,130.4221721,0
170,0.2,-1,0,0,1,0,63.21413865,118.354216,1.476906167,-41.75010253,,148.0238761,2.087103904,1.559800484,135.288002,22.18216543,-32.66568505,5.734981536,-0.41037109,27.24982258,-0.357259124,0,0,0,-2.51454528,-10.21986216,-30.29391777,63.9938466,-22.6355706,125.5368895,0
171,0.2,-1,0,0,1,0,21.12650927,119.8230131,3.530906972,-44.21922687,,169.7261031,-0.488719972,3.524835539,156.8936047,17.85655296,-24.83991362,6.397139882,-0.118517886,25.31700681,1.473635395,0,0,0,-5.221591628,-1.820634932,-32.57474946,63.99376856,-22.63553044,125.625167,0
172.017,0.2,-1,0,0,1,0,10.05950948,119.9248163,2.965641566,-43.74447442,,172.5780209,-0.164916618,2.963206267,159.6240518,13.53782041,-17.56180989,4.882150664,-0.085536268,18.14293356,0.857920865,0,0,0,-5.656524973,-0.927840189,-32.53304289,63.99370968,-22.63549433,125.6724857,0
173,0.2,-1,0,0,1,0,10.70951871,119.9431539,2.495575148,-42.95250149,,161.8207825,0.480485983,2.493502469,148.8111201,9.298746675,-10.34093198,3.486922043,-0.055253828,10.64436215,0.388319534,0,0,0,-5.752333197,-3.110110813,-32.44926964,63.99367195,-22.63546918,125.7065637,0
174.008,0.2,-1,0,0,1,0,9.48581896,119.9663365,2.094982046,-42.31214197,,147.1578236,0.966586011,2.092771743,134.1566898,4.907220978,-2.847102734,1.723019941,-0.021473853,3.218152932,0.081886513,0,0,0,-5.664414249,-3.746197955,-32.35844592,63.99365366,-22.63545236,125.7293787,0
175.367,0.2,-1,0,0,1,0,16.85802778,119.9782269,1.985310336,-42.34377618,,142.4992961,0.865479063,1.987597985,129.5423716,3.216978162,-0.266658809,0.398023524,-0.000783885,0.476445784,0.016469948,0,0,0,-3.742083899,-1.917082887,-32.30615257,63.99365184,-22.63544949,125.733757,0
176.383,0.2,-1,0,0,1,0,-10.98765485,119.9585112,3.912244946,-42.53451526,,141.8098441,0.457062338,3.909523975,128.8937711,3.045355222,-0.135638281,0.045111204,-0.004817851,0.12032352,0.002777541,0,0,0,4.461510837,6.975121518,-32.34488722,63.99365192,-22.63544933,125.7134676,0
177,0.2,-1,0,0,1,0,9.700967938,119.9601123,3.865230235,-42.37327694,,141.698152,0.455242198,3.865653482,128.7816793,2.97070653,0.037493456,0.087929103,0.000217647,0.044942714,0.003924677,0,0,0,0.085255762,-7.923755774,-31.92556387,63.99365178,-22.63544896,125.7142928,0
178.017,0.2,-1,0,0,1,0,11.15132735,119.9603377,3.861328258,-42.22176919,,141.5998123,0.454247007,3.861481286,128.6833184,2.972538186,0.035616007,0.090890092,-0.000144274,0.048588561,0.00380571,0,0,0,0.118168598,-7.961755701,-31.921555,63.99365167,-22.63544861,125.7147267,0
179.017,0.2,-1,0,0,1,0,12.49744312,119.960575,3.862439906,-42.0724791,,141.5019861,0.45353973,3.862616529,128.5854926,2.972251309,0.035955303,0.090501787,-0.00012174,0.048217071,0.00380266,0,0,0,0.111547234,-7.954130992,-31.9221962,63.99365156,-22.63544826,125.7150574,0
180.017,0.2,-1,0,0,1,0,13.77467106,119.9608251,3.861942659,-41.92320997,,141.4043411,0.452811378,3.862118795,128.487843,2.972157664,0.036107057,0.09044316,-0.000123015,0.048220871,0.003800141,0,0,0,0.110258044,-7.953748697,-31.92259325,63.99365145,-22.63544792,125.7154128,0
181,0.2,-1,0,0,1,0,14.55442001,119.9609897,3.86148028,-41.77603387,,141.3091697,0.455658795,3.861302502,128.3926817,3.028402852,-0.116140718,0.020678141,-0.000759204,0.08818649,0.004569236,0,0,0,4.125813166,7.308155764,-32.38297321,63.99365135,-22.63544758,125.7157489,0
182,0.2,-1,0,0,1,0,15.99516696,119.9613177,3.861549085,-41.62715389,,141.2108013,0.45136631,3.861725164,128.2943067,2.971949934,0.036426282,0.090284188,-0.00011892,0.048183429,0.003799162,0,0,0,0.107285546,-7.951017046,-31.92257527,63.99365123,-22.63544724,125.716114,0
183,0.2,-1,0,0,1,0,17.00493967,119.961566,3.861325922,-41.47787219,,141.1132773,0.450644698,3.861501135,128.1967895,2.971847723,0.036586807,0.090211598,-0.000112443,0.048170536,0.003803522,0,0,0,0.106195826,-7.950031003,-31.92236547,63.99365112,-22.63544689,125.7164676,0
