Time,latitude-deg,longitude-deg,altitude-ft,BaroA,OAT,airspeed-kt,GndSpd,vertical-speed-fps,pitch-deg,roll-deg,heading-deg,volt,amp,FQtyL,FQtyR,E1FFlow,E1OilT,E1OilP,E1RPM,E1EGT1,CRS,NAV1,NAV2,COM1,COM2,WndSpd,WndDr
472.025,63.99183623,-22.60542632,146.2295052,30.14575,14.7102901,0,0,-0,4.952349898,0.1047643847,180.0133204,,0,5.375,5.375,0,59.27,0,0,59.27,326,112,112.4,118.3,128.3,3.024262852,270.0808762
472.025,63.99183623,-22.60542632,146.2295052,30.14575,14.7102901,0,0,-0,4.952349898,0.1047643847,180.0133204,,0,5.375,5.375,0,59.27,0,0,59.27,326,112,112.4,118.3,128.3,3.024262852,270.0808762
472.025,63.99183623,-22.60542632,146.2295052,30.14575,14.7102901,0,0,-0,4.952349898,0.1047643847,180.0133204,,0,5.375,5.375,0,59.27,0,0,59.27,326,112,112.4,118.3,128.3,3.024262852,270.0808762
472.025,63.99183623,-22.60542632,146.2295052,30.14575,14.7102901,0,0,-0,4.952349898,0.1047643847,180.0133204,,0,5.375,5.375,0,59.27,0,0,59.27,326,112,112.4,118.3,128.3,3.024262852,270.0808762
472.025,63.99183623,-22.60542632,146.2295052,30.14575,14.7102901,0,0,-0,4.952349898,0.1047643847,180.0133204,,0,5.375,5.375,0,59.27,0,0,59.27,326,112,112.4,118.3,128.3,3.024262852,270.0808762
472.025,63.99183623,-22.60542632,146.2295052,30.14575,14.7102901,0,0,-0,4.952349898,0.1047643847,180.0133204,,0,5.375,5.375,0,59.27,0,0,59.27,326,112,112.4,118.3,128.3,3.024262852,270.0808762
472.025,63.99183623,-22.60542632,146.2295052,30.14575,14.7102901,0,0,-0,4.952349898,0.1047643847,180.0133204,,0,5.375,5.375,0,59.27,0,0,59.27,326,112,112.4,118.3,128.3,3.024262852,270.0808762
472.025,63.99183623,-22.60542632,146.2295052,30.14575,14.7102901,0,0,-0,4.952349898,0.1047643847,180.0133204,,0,5.375,5.375,0,59.27,0,0,59.27,326,112,112.4,118.3,128.3,3.024262852,270.0808762
472.025,63.99183623,-22.60542632,146.2295052,30.14575,14.7102901,0,0,-0,4.952349898,0.1047643847,180.0133204,,0,5.375,5.375,0,59.27,0,0,59.27,326,112,112.4,118.3,128.3,3.024262852,270.0808762
472.025,63.99183623,-22.60542632,146.2295052,30.14575,14.7102901,0,0,-0,4.952349898,0.1047643847,180.0133204,,0,5.375,5.375,0,59.27,0,0,59.27,326,112,112.4,118.3,128.3,3.024262852,270.0808762
472.658,63.99183624,-22.60542632,146.2292051,30.14575,14.81586737,3.012544395,0.0002795786829,-3.184855778e-05,4.980806149,0.09277952328,180.0123921,0,0,5.370708749,5.370708749,0,59.26965199,0,0,59.26482415,326,112,112.4,118.3,128.3,2.84255939,266.3017363
472.658,63.99183624,-22.60542632,146.2292051,30.14575,14.81586737,3.012544395,0.0002795786829,-3.184855778e-05,4.980806149,0.09277952328,180.0123921,0,0,5.370708749,5.370708749,0,59.26965199,0,0,59.26482415,326,112,112.4,118.3,128.3,2.84255939,266.3017363
472.658,63.99183624,-22.60542632,146.2292051,30.14575,14.81586737,3.012544395,0.0002795786829,-3.184855778e-05,4.980806149,0.09277952328,180.0123921,0,0,5.370708749,5.370708749,0,59.26965199,0,0,59.26482415,326,112,112.4,118.3,128.3,2.84255939,266.3017363
472.658,63.99183624,-22.60542632,146.2292051,30.14575,14.81586737,3.012544395,0.0002795786829,-3.184855778e-05,4.980806149,0.09277952328,180.0123921,0,0,5.370708749,5.370708749,0,59.26965199,0,0,59.26482415,326,112,112.4,118.3,128.3,2.84255939,266.3017363
472.658,63.99183624,-22.60542632,146.2292051,30.14575,14.81586737,3.012544395,0.0002795786829,-3.184855778e-05,4.980806149,0.09277952328,180.0123921,0,0,5.370708749,5.370708749,0,59.26965199,0,0,59.26482415,326,112,112.4,118.3,128.3,2.84255939,266.3017363
472.658,63.99183624,-22.60542632,146.2292051,30.14575,14.81586737,3.012544395,0.0002795786829,-3.184855778e-05,4.980806149,0.09277952328,180.0123921,0,0,5.370708749,5.370708749,0,59.26965199,0,0,59.26482415,326,112,112.4,118.3,128.3,2.84255939,266.3017363
472.808,63.99183623,-22.60542632,146.2294914,30.14575,14.8408718,2.832047094,0.0007353080188,8.391989228e-05,4.9550446,0.09405107486,180.0124686,0,0,5.370708749,5.370708749,0,59.26951095,0,0,59.26277261,326,112,112.4,118.3,128.3,2.801479688,265.3361534
472.892,63.99183623,-22.60542632,146.2295135,30.14575,14.85476342,2.791220836,0.0004193543706,5.930192124e-05,4.953002953,0.09427382174,180.0124844,0,0,5.370708749,5.370708749,0,59.26948197,0,0,59.26235609,326,112,112.4,118.3,128.3,2.779009305,264.787469
472.95,63.99183623,-22.60542632,146.2295241,30.14575,14.86448757,2.760017959,0.000271677926,4.179225574e-05,4.952062831,0.09448279956,180.0125001,0,0,5.370708749,5.370708749,0,59.26946158,0,0,59.26206504,326,112,112.4,118.3,128.3,2.763433766,264.3981049
473.05,63.99183623,-22.60542632,146.2295301,30.14575,14.88115756,2.733677027,0.0001926763331,2.916062446e-05,4.951545202,0.09468138573,180.0125154,0,0,5.370708749,5.370708749,0,59.26944583,0,0,59.26184174,326,112,112.4,118.3,128.3,2.73703432,263.7203767
474.05,63.99183623,-22.60542632,146.2295312,30.14575,15.04785755,2.727152055,0.0001785436292,2.618839385e-05,4.951446699,0.09473540146,180.0125196,0,0,5.370708749,5.370708749,0,59.2694422,0,0,59.26179063,326,112,112.4,118.3,128.3,2.49646433,256.1969119
474.05,63.99183623,-22.60542632,146.2295312,30.14575,15.04785755,2.727152055,0.0001785436292,2.618839385e-05,4.951446699,0.09473540146,180.0125196,0,0,5.370708749,5.370708749,0,59.2694422,0,0,59.26179063,326,112,112.4,118.3,128.3,2.49646433,256.1969119
474.05,63.99183623,-22.60542632,146.2295312,30.14575,15.04785755,2.727152055,0.0001785436292,2.618839385e-05,4.951446699,0.09473540146,180.0125196,0,0,5.370708749,5.370708749,0,59.2694422,0,0,59.26179063,326,112,112.4,118.3,128.3,2.49646433,256.1969119
474.05,63.99183623,-22.60542632,146.2295312,30.14575,15.04785755,2.727152055,0.0001785436292,2.618839385e-05,4.951446699,0.09473540146,180.0125196,0,0,5.370708749,5.370708749,0,59.2694422,0,0,59.26179063,326,112,112.4,118.3,128.3,2.49646433,256.1969119
474.05,63.99183623,-22.60542632,146.2295312,30.14575,15.04785755,2.727152055,0.0001785436292,2.618839385e-05,4.951446699,0.09473540146,180.0125196,0,0,5.370708749,5.370708749,0,59.2694422,0,0,59.26179063,326,112,112.4,118.3,128.3,2.49646433,256.1969119
474.05,63.99183623,-22.60542632,146.2295312,30.14575,15.04785755,2.727152055,0.0001785436292,2.618839385e-05,4.951446699,0.09473540146,180.0125196,0,0,5.370708749,5.370708749,0,59.2694422,0,0,59.26179063,326,112,112.4,118.3,128.3,2.49646433,256.1969119
474.05,63.99183623,-22.60542632,146.2295312,30.14575,15.04785755,2.727152055,0.0001785436292,2.618839385e-05,4.951446699,0.09473540146,180.0125196,0,0,5.370708749,5.370708749,0,59.2694422,0,0,59.26179063,326,112,112.4,118.3,128.3,2.49646433,256.1969119
474.05,63.99183623,-22.60542632,146.2295312,30.14575,15.04785755,2.727152055,0.0001785436292,2.618839385e-05,4.951446699,0.09473540146,180.0125196,0,0,5.370708749,5.370708749,0,59.2694422,0,0,59.26179063,326,112,112.4,118.3,128.3,2.49646433,256.1969119
474.05,63.99183623,-22.60542632,146.2295312,30.14575,15.04785755,2.727152055,0.0001785436292,2.618839385e-05,4.951446699,0.09473540146,180.0125196,0,0,5.370708749,5.370708749,0,59.2694422,0,0,59.26179063,326,112,112.4,118.3,128.3,2.49646433,256.1969119
474.05,63.99183623,-22.60542632,146.2295312,30.14575,15.04785755,2.727152055,0.0001785436292,2.618839385e-05,4.951446699,0.09473540146,180.0125196,0,0,5.370708749,5.370708749,0,59.2694422,0,0,59.26179063,326,112,112.4,118.3,128.3,2.49646433,256.1969119
474.242,63.99183623,-22.60542632,146.2295106,30.14575,15.07980843,2.487857386,2.101663671e-05,-2.421875097e-06,4.951438701,0.09814393076,180.0127907,0,0,5.370708749,5.370708749,0,59.26949744,0,0,59.26274266,326,112,112.4,118.3,128.3,2.455831912,254.5942055
474.242,63.99183623,-22.60542632,146.2295106,30.14575,15.07980843,2.487857386,2.101663671e-05,-2.421875097e-06,4.951438701,0.09814393076,180.0127907,0,0,5.370708749,5.370708749,0,59.26949744,0,0,59.26274266,326,112,112.4,118.3,128.3,2.455831912,254.5942055
474.342,63.99183623,-22.60542632,146.2295062,30.14575,15.09647844,2.432206916,5.613464144e-05,-1.171384043e-05,4.951526089,0.09847430495,180.012817,0,0,5.370708749,5.370708749,0,59.26952335,0,0,59.26316122,326,112,112.4,118.3,128.3,2.435414412,253.7371293
474.442,63.99183623,-22.60542632,146.2295043,30.14575,15.11314844,2.412326243,6.619888613e-05,-1.477044514e-05,4.951572184,0.09861236788,180.012828,0,0,5.370708749,5.370708749,0,59.2695355,0,0,59.26335421,326,112,112.4,118.3,128.3,2.415551015,252.8657597
474.533,63.99183623,-22.60542632,146.2295022,30.14575,15.12842928,2.394594159,7.446897368e-05,-1.668065046e-05,4.95162235,0.09875824755,180.0128397,0,0,5.370708749,5.370708749,0,59.2695484,0,0,59.26355708,326,112,112.4,118.3,128.3,2.397841432,252.0544923
474.65,63.99183623,-22.60542632,146.2294993,30.14575,15.14787762,2.372722512,8.167353221e-05,-1.878850269e-05,4.951696249,0.09896440684,180.0128562,0,0,5.370708749,5.370708749,0,59.26956725,0,0,59.26385152,326,112,112.4,118.3,128.3,2.376008902,251.004763
474.733,63.99183623,-22.60542632,146.2294971,30.14575,15.16176929,2.357589234,8.495777953e-05,-1.864237908e-05,4.951754166,0.09912080309,180.0128686,0,0,5.370708749,5.370708749,0,59.26958244,0,0,59.26408719,326,112,112.4,118.3,128.3,2.36091021,250.2432474
474.858,63.99183623,-22.60542632,146.2294938,30.14575,15.18260679,2.337104918,8.700514855e-05,-1.927482179e-05,4.951839602,0.09934599619,180.0128866,0,0,5.370708749,5.370708749,0,59.26960599,0,0,59.26445099,326,112,112.4,118.3,128.3,2.339056623,249.0828834
474.95,63.99183623,-22.60542632,146.229491,30.14575,15.19788763,2.320214784,8.742576633e-05,-1.91657612e-05,4.951915082,0.0995422826,180.0129023,0,0,5.370708749,5.370708749,0,59.26962839,0,0,59.26479536,326,112,112.4,118.3,128.3,2.323650228,248.2183313
475.042,63.99183623,-22.60542632,146.2294887,30.14575,15.21316847,2.306622106,8.807875016e-05,-1.987554253e-05,4.95197839,0.09970579978,180.0129154,0,0,5.370708749,5.370708749,0,59.26964861,0,0,59.26510522,326,112,112.4,118.3,128.3,2.308779887,247.3424408
475.133,63.99183623,-22.60542632,146.2294861,30.14575,15.22844931,2.292185114,8.733133127e-05,-1.948970155e-05,4.952048118,0.09988558114,180.0129298,0,0,5.370708749,5.370708749,0,59.26967249,0,0,59.26547021,326,112,112.4,118.3,128.3,2.294456022,246.4554047
475.25,63.99183623,-22.60542632,146.2294827,30.14575,15.24789765,2.2733873,8.543773887e-05,-1.88537488e-05,4.952142036,0.1001271818,180.0129491,0,0,5.370708749,5.370708749,0,59.2697078,0,0,59.26600811,326,112,112.4,118.3,128.3,2.277032235,245.3106788
475.333,63.99183623,-22.60542632,146.2294805,30.14575,15.26178932,2.261436956,8.385653777e-05,-1.83895983e-05,4.952203189,0.1002844403,180.0129616,0,0,5.370708749,5.370708749,0,59.26973307,0,0,59.26639195,326,112,112.4,118.3,128.3,2.265150407,244.4824651
475.442,63.99183623,-22.60542632,146.2294776,30.14575,15.27984849,2.246610965,8.119665508e-05,-1.698247468e-05,4.952280701,0.1004845659,180.0129776,0,0,5.370708749,5.370708749,0,59.269768,0,0,59.26692148,326,112,112.4,118.3,128.3,2.250420084,243.3930274
475.55,63.99183623,-22.60542632,146.229475,30.14575,15.29790766,2.232602654,7.895331962e-05,-1.62203919e-05,4.952355758,0.100679355,180.0129932,0,0,5.370708749,5.370708749,0,59.26980531,0,0,59.26748563,326,112,112.4,118.3,128.3,2.236513928,242.2896388
475.633,63.99183623,-22.60542632,146.229473,30.14575,15.31179933,2.222392969,7.71718756e-05,-1.55874811e-05,4.952411809,0.1008256573,180.0130049,0,0,5.370708749,5.370708749,0,59.26983563,0,0,59.26794323,326,112,112.4,118.3,128.3,2.226387442,241.4317373
475.733,63.99183623,-22.60542632,146.2294707,30.14575,15.32846934,2.210801468,7.483474723e-05,-1.490110318e-05,4.952476927,0.1009963497,180.0130185,0,0,5.370708749,5.370708749,0,59.26987384,0,0,59.26851884,326,112,112.4,118.3,128.3,2.214901053,240.3921918
475.833,63.99183623,-22.60542632,146.2294685,30.14575,15.34513934,2.199941165,7.264887414e-05,-1.405888925e-05,4.952539691,0.1011621376,180.0130318,0,0,5.370708749,5.370708749,0,59.26991407,0,0,59.26912387,326,112,112.4,118.3,128.3,2.204151238,239.3421579
475.942,63.99183623,-22.60542632,146.2294663,30.14575,15.36319851,2.189013943,7.083683348e-05,-1.34991211e-05,4.952605131,0.1013366089,180.0130457,0,0,5.370708749,5.370708749,0,59.26995997,0,0,59.26981289,326,112,112.4,118.3,128.3,2.19334935,238.1934311
476.05,63.99183623,-22.60542632,146.2294643,30.14575,15.38125769,2.179710877,6.807460812e-05,-1.220880451e-05,4.952663223,0.1014927575,180.0130582,0,0,5.370708749,5.370708749,0,59.27000442,0,0,59.27047911,326,112,112.4,118.3,128.3,2.183437628,237.0338051
476.133,63.99183623,-22.60542632,146.2294626,30.14575,15.39514936,2.171853959,6.659995076e-05,-1.167616326e-05,4.952714507,0.1016320356,180.0130693,0,0,5.370708749,5.370708749,0,59.27004701,0,0,59.2711164,326,112,112.4,118.3,128.3,2.176426639,236.1348738
476.242,63.99183623,-22.60542632,146.2294608,30.14575,15.41320853,2.163404002,6.371086693e-05,-1.034876356e-05,4.952772649,0.1017913435,180.0130821,0,0,5.370708749,5.370708749,0,59.2700995,0,0,59.27190074,326,112,112.4,118.3,128.3,2.168119072,234.957972
476.35,63.99183623,-22.60542632,146.229459,30.14575,15.4312677,2.155870622,6.134355796e-05,-9.324649406e-06,4.952827973,0.1019447513,180.0130943,0,0,5.370708749,5.370708749,0,59.27015437,0,0,59.27271942,326,112,112.4,118.3,128.3,2.160733097,233.772521
476.433,63.99183623,-22.60542632,146.2294579,30.14575,15.44515936,2.15119706,5.96742569e-05,-8.586761075e-06,4.952864621,0.1020474891,180.0131025,0,0,5.370708749,5.370708749,0,59.27019374,0,0,59.27330602,326,112,112.4,118.3,128.3,2.15568469,232.855402
476.542,63.99183623,-22.60542632,146.2294563,30.14575,15.46321853,2.144816451,5.773402406e-05,-7.637507176e-06,4.952919162,0.102202779,180.0131149,0,0,5.370708749,5.370708749,0,59.2702573,0,0,59.27425199,326,112,112.4,118.3,128.3,2.149951763,231.6571324
476.65,63.99183623,-22.60542632,146.229455,30.14575,15.4812777,2.139867806,5.549554811e-05,-6.530518053e-06,4.952967079,0.102341425,180.013126,0,0,5.370708749,5.370708749,0,59.27031879,0,0,59.2751656,326,112,112.4,118.3,128.3,2.145163979,230.452985
476.733,63.99183623,-22.60542632,146.2294541,30.14575,15.49516937,2.136705203,5.351642884e-05,-5.511020014e-06,4.953002213,0.1024447837,180.0131343,0,0,5.370708749,5.370708749,0,59.27036771,0,0,59.27589175,326,112,112.4,118.3,128.3,2.142128238,229.5233626
476.85,63.99183623,-22.60542632,146.229453,30.14575,15.51461771,2.133224477,5.156529086e-05,-4.428563203e-06,4.953048846,0.1025844124,180.0131454,0,0,5.370708749,5.370708749,0,59.2704386,0,0,59.27694259,326,112,112.4,118.3,128.3,2.138828574,228.2179804
476.958,63.99183623,-22.60542632,146.2294521,30.14575,15.53267688,2.131123126,4.924420139e-05,-3.349548044e-06,4.95308645,0.1026992956,180.0131546,0,0,5.370708749,5.370708749,0,59.27050152,0,0,59.27787411,326,112,112.4,118.3,128.3,2.136761379,227.0028094
477.042,63.99183623,-22.60542632,146.2294515,30.14575,15.54656854,2.129996554,4.778116331e-05,-2.496472472e-06,4.953116174,0.1027920907,180.013162,0,0,5.370708749,5.370708749,0,59.27055554,0,0,59.27867299,326,112,112.4,118.3,128.3,2.135826253,226.066777
477.15,63.99183623,-22.60542632,146.2294508,30.14575,15.56462771,2.129374827,4.602096781e-05,-1.245941894e-06,4.9531554,0.102917542,180.013172,0,0,5.370708749,5.370708749,0,59.27063356,0,0,59.27982555,326,112,112.4,118.3,128.3,2.135463463,224.8491578
477.25,63.99183623,-22.60542632,146.2294503,30.14575,15.58129771,2.129729372,4.39367029e-05,-2.44888328e-07,4.953186807,0.1030207374,180.0131803,0,0,5.370708749,5.370708749,0,59.2707026,0,0,59.28084417,326,112,112.4,118.3,128.3,2.135984657,223.7252975
477.35,63.99183623,-22.60542632,146.22945,30.14575,15.59796771,2.130903387,4.228863111e-05,8.17757085e-07,4.953216185,0.1031201125,180.0131882,0,0,5.370708749,5.370708749,0,59.27077369,0,0,59.28189175,326,112,112.4,118.3,128.3,2.137327088,222.6024172
477.45,63.99183623,-22.60542632,146.2294498,30.14575,15.61463771,2.132895381,4.071340577e-05,1.886631688e-06,4.953243628,0.1032160227,180.0131959,0,0,5.370708749,5.370708749,0,59.27084681,0,0,59.28296829,326,112,112.4,118.3,128.3,2.139489209,221.4813765
477.55,63.99183623,-22.60542632,146.2294497,30.14575,15.63130771,2.135703151,3.91875268e-05,2.941514995e-06,4.953269193,0.103308587,180.0132032,0,0,5.370708749,5.370708749,0,59.27092198,0,0,59.28407374,326,112,112.4,118.3,128.3,2.142468539,220.3630265
477.658,63.99183623,-22.60542632,146.2294497,30.14575,15.64936688,2.139323578,3.771226747e-05,4.006070327e-06,4.953292921,0.1033979083,180.0132104,0,0,5.370708749,5.370708749,0,59.2709992,0,0,59.28520807,326,112,112.4,118.3,128.3,2.146614374,219.1554892
477.742,63.99183623,-22.60542632,146.2294499,30.14575,15.66325855,2.143352933,3.670629067e-05,5.230775781e-06,4.953313138,0.1034773864,180.0132167,0,0,5.370708749,5.370708749,0,59.27107184,0,0,59.28627407,326,112,112.4,118.3,128.3,2.150449959,218.2300902
477.933,63.99183623,-22.60542632,146.2294499,30.14575,15.69520938,2.144569122,3.611973842e-05,5.210889967e-06,4.953318397,0.1034986076,180.0132184,0,0,5.370708749,5.370708749,0,59.27109193,0,0,59.28656877,326,112,112.4,118.3,128.3,2.161387136,216.1158321
477.933,63.99183623,-22.60542632,146.2294499,30.14575,15.69520938,2.144569122,3.611973842e-05,5.210889967e-06,4.953318397,0.1034986076,180.0132184,0,0,5.370708749,5.370708749,0,59.27109193,0,0,59.28656877,326,112,112.4,118.3,128.3,2.161387136,216.1158321
478.042,63.99183623,-22.60542632,146.2294513,30.14575,15.71326854,2.160645528,3.05193734e-05,7.614266931e-06,4.953371608,0.1037352579,180.0132373,0,0,5.370708749,5.370708749,0,59.27131752,0,0,59.28987357,326,112,112.4,118.3,128.3,2.168860064,214.9311449
478.758,63.99183623,-22.60542632,146.2294516,30.14575,15.83273688,2.164911578,2.946638828e-05,7.923702504e-06,4.953380521,0.1037763249,180.0132406,0,0,5.370708749,5.370708749,0,59.27136812,0,0,59.29061338,326,112,112.4,118.3,128.3,2.24093745,207.3506343
478.758,63.99183623,-22.60542632,146.2294516,30.14575,15.83273688,2.164911578,2.946638828e-05,7.923702504e-06,4.953380521,0.1037763249,180.0132406,0,0,5.370708749,5.370708749,0,59.27136812,0,0,59.29061338,326,112,112.4,118.3,128.3,2.24093745,207.3506343
478.758,63.99183623,-22.60542632,146.2294516,30.14575,15.83273688,2.164911578,2.946638828e-05,7.923702504e-06,4.953380521,0.1037763249,180.0132406,0,0,5.370708749,5.370708749,0,59.27136812,0,0,59.29061338,326,112,112.4,118.3,128.3,2.24093745,207.3506343
478.758,63.99183623,-22.60542632,146.2294516,30.14575,15.83273688,2.164911578,2.946638828e-05,7.923702504e-06,4.953380521,0.1037763249,180.0132406,0,0,5.370708749,5.370708749,0,59.27136812,0,0,59.29061338,326,112,112.4,118.3,128.3,2.24093745,207.3506343
478.758,63.99183623,-22.60542632,146.2294516,30.14575,15.83273688,2.164911578,2.946638828e-05,7.923702504e-06,4.953380521,0.1037763249,180.0132406,0,0,5.370708749,5.370708749,0,59.27136812,0,0,59.29061338,326,112,112.4,118.3,128.3,2.24093745,207.3506343
478.758,63.99183623,-22.60542632,146.2294516,30.14575,15.83273688,2.164911578,2.946638828e-05,7.923702504e-06,4.953380521,0.1037763249,180.0132406,0,0,5.370708749,5.370708749,0,59.27136812,0,0,59.29061338,326,112,112.4,118.3,128.3,2.24093745,207.3506343
478.758,63.99183623,-22.60542632,146.2294516,30.14575,15.83273688,2.164911578,2.946638828e-05,7.923702504e-06,4.953380521,0.1037763249,180.0132406,0,0,5.370708749,5.370708749,0,59.27136812,0,0,59.29061338,326,112,112.4,118.3,128.3,2.24093745,207.3506343
478.867,63.99183623,-22.60542632,146.2294625,30.14575,15.85079602,2.2352354,1.023039376e-05,5.347582078e-06,4.953450929,0.1043464612,180.013286,0,0,5.370708749,5.370708749,0,59.2720673,0,0,59.30081263,326,112,112.4,118.3,128.3,2.255112905,206.2517158
478.95,63.99183623,-22.60542632,146.229464,30.14575,15.86468769,2.257401586,1.306470545e-05,1.04508635e-05,4.953454378,0.1043965696,180.01329,0,0,5.370708749,5.370708749,0,59.27224032,0,0,59.3033216,326,112,112.4,118.3,128.3,2.266575269,205.4159772
479.05,63.99183623,-22.60542632,146.2294652,30.14575,15.88135768,2.2716241,1.491495155e-05,1.377198829e-05,4.953455233,0.1044298974,180.0132926,0,0,5.370708749,5.370708749,0,59.27234632,0,0,59.30485659,326,112,112.4,118.3,128.3,2.280959529,204.4244407
479.133,63.99183623,-22.60542632,146.2294664,30.14575,15.89524935,2.283993473,1.631387413e-05,1.584784201e-05,4.953455198,0.1044611414,180.0132951,0,0,5.370708749,5.370708749,0,59.27243626,0,0,59.3061579,326,112,112.4,118.3,128.3,2.29346216,203.6078601
479.258,63.99183623,-22.60542632,146.2294684,30.14575,15.91608684,2.302085332,1.771444576e-05,1.942631046e-05,4.953453872,0.1045087374,180.0132989,0,0,5.370708749,5.370708749,0,59.27256459,0,0,59.30801316,326,112,112.4,118.3,128.3,2.313077587,202.3999485
479.342,63.99183623,-22.60542632,146.2294702,30.14575,15.92997851,2.316922064,1.830245415e-05,2.120652278e-05,4.953451739,0.1045482066,180.0133021,0,0,5.370708749,5.370708749,0,59.27266741,0,0,59.30949816,326,112,112.4,118.3,128.3,2.326717564,201.6062172
479.442,63.99183623,-22.60542632,146.2294723,30.14575,15.9466485,2.333718339,1.848745473e-05,2.215363254e-05,4.953448331,0.1045921056,180.0133055,0,0,5.370708749,5.370708749,0,59.2727815,0,0,59.31114445,326,112,112.4,118.3,128.3,2.343667318,200.6661592
479.542,63.99183623,-22.60542632,146.2294746,30.14575,15.9633185,2.351138945,1.875905594e-05,2.374835557e-05,4.953443818,0.1046365085,180.0133091,0,0,5.370708749,5.370708749,0,59.27289765,0,0,59.31281908,326,112,112.4,118.3,128.3,2.361238815,199.7398462
479.642,63.99183623,-22.60542632,146.229477,30.14575,15.97998849,2.369169699,2.263405334e-05,2.532416998e-05,4.953439797,0.1046850034,180.0133129,0,0,5.370708749,5.370708749,0,59.27301587,0,0,59.31452203,326,112,112.4,118.3,128.3,2.379418281,198.8274522
479.742,63.99183623,-22.60542632,146.2294796,30.14575,15.99665849,2.387796532,2.710688197e-05,2.683790361e-05,4.953440398,0.1047443943,180.0133177,0,0,5.370708749,5.370708749,0,59.27313616,0,0,59.31625327,326,112,112.4,118.3,128.3,2.39819189,197.9291182
479.842,63.99183623,-22.60542632,146.2294822,30.14575,16.01332848,2.407006462,3.067520833e-05,2.82486671e-05,4.953445869,0.1048133443,180.0133231,0,0,5.370708749,5.370708749,0,59.27325851,0,0,59.31801278,326,112,112.4,118.3,128.3,2.417545801,197.0449532
479.942,63.99183623,-22.60542632,146.229485,30.14575,16.02999848,2.42678609,3.335472894e-05,2.961884933e-05,4.953454663,0.1048895439,180.0133292,0,0,5.370708749,5.370708749,0,59.27338294,0,0,59.31980051,326,112,112.4,118.3,128.3,2.437466189,196.1750355
480.042,63.99183623,-22.60542632,146.2294878,30.15975,16.04666847,2.447121744,3.533951227e-05,3.094639336e-05,4.95346502,0.1049712081,180.0133357,0,0,5.375,5.375,0,59.27350945,0,0,59.32161645,326,112,112.4,118.3,128.3,2.457939284,195.3194151
480.183,63.99183623,-22.60542632,146.2294894,30.15975,16.0702843,2.4627278,3.68813217e-05,2.286148599e-05,4.953474895,0.1050353401,180.0133408,24.7491982,-11.78194737,5.375,5.375,0.05202892686,59.27360568,0.628933165,9.864886051,59.3229969,326,112,112.4,118.3,128.3,2.487862282,194.1317991
480.258,63.99183623,-22.60542632,146.2294925,30.15975,16.0827868,2.48941365,3.596526851e-05,2.985613168e-05,4.953497985,0.1051534443,180.0133503,24.74546553,-19.3222354,5.375,5.375,0.2833338551,59.27376931,3.463916563,54.33192922,59.32534242,326,112,112.4,118.3,128.3,2.504128642,193.5146907
480.342,63.99183623,-22.60542632,146.2294963,30.15975,16.09667846,2.511401286,7.970535304e-05,3.819100226e-05,4.953417238,0.1052288303,180.0133562,24.74201294,-25.86305973,5.375,5.375,0.4531341673,59.273904,5.635434239,88.39245478,59.32724425,326,112,112.4,118.3,128.3,2.522538412,192.8384378
480.442,63.99183623,-22.60542632,146.2295023,30.15975,16.11334844,2.533918563,0.0001759188592,4.976139756e-05,4.953131326,0.1052747561,180.0133595,24.73883745,-29.91394652,5.375,5.375,0.6064800117,59.2740819,7.712706939,120.9747622,59.32917272,326,112,112.4,118.3,128.3,2.545086564,192.0399864
480.55,63.99183623,-22.60542632,146.2295117,30.15975,16.13140759,2.558880904,0.0003014693612,6.386716618e-05,4.952527845,0.105280977,180.0133595,24.73567295,-31.57252964,5.375,5.375,0.7527630257,59.2743405,9.850218195,154.5019622,59.33129398,326,112,112.4,118.3,128.3,2.570061222,191.1909883
480.65,63.99183623,-22.60542632,146.2295234,30.15975,16.14807757,2.58242095,0.0004203001459,7.40112503e-05,4.951676944,0.1052460121,180.0133559,24.7322571,-32.25118226,5.375,5.375,0.8695331082,59.27463871,11.71723754,183.7865034,59.33328089,326,112,112.4,118.3,128.3,2.59360628,190.4219636
480.733,63.99183623,-22.60542632,146.2295353,30.15975,16.16196921,2.602387938,0.0005154824444,8.269007111e-05,4.950754837,0.1051885216,180.0133504,24.72963826,-32.480481,5.375,5.375,0.953917903,59.27492999,13.19460546,206.9593332,59.33495846,326,112,112.4,118.3,128.3,2.613578156,189.7917863
480.842,63.99183623,-22.60542632,146.2295532,30.15975,16.18002834,2.628803252,0.0006286928314,9.498508595e-05,4.94928509,0.1050774339,180.0133401,24.72650564,-32.6218699,5.375,5.375,1.047095416,59.27536525,15.00874742,235.4146011,59.33716822,326,112,112.4,118.3,128.3,2.63788093,188.994244
480.95,63.99183623,-22.60542632,146.2295733,30.15975,16.19808747,2.629224943,0.0007252766861,9.117742136e-05,4.947542961,0.1049307732,180.0133268,24.72312424,-32.67908685,5.375,5.375,1.123086893,59.27586269,16.70404615,262.0058662,59.33941078,326,112,112.4,118.3,128.3,2.633054509,188.304467
481.042,63.99183623,-22.60542632,146.2295909,30.15975,16.21336827,2.625485695,0.0007920940793,8.774007435e-05,4.945890562,0.1047853687,180.0133136,24.72027299,-32.69796519,5.375,5.375,1.175272566,59.27633075,18.04766045,283.0809275,59.34133441,326,112,112.4,118.3,128.3,2.629269674,187.7189018
481.15,63.99183623,-22.60542632,146.2296106,30.15975,16.2314274,2.621704933,0.0008497404056,8.552240137e-05,4.943938373,0.1046084262,180.0132977,24.71743083,-32.70714083,5.375,5.375,1.220906985,59.27688908,19.42111993,304.6242013,59.3434602,326,112,112.4,118.3,128.3,2.625151834,187.0247822
481.25,63.99183623,-22.60542632,146.2296309,30.15975,16.24809736,2.618237433,0.0008920764605,8.355736084e-05,4.941866358,0.1044160053,180.0132804,24.71408359,-32.71129943,5.375,5.375,1.25612148,59.27749534,20.70151442,324.7078012,59.34561365,326,112,112.4,118.3,128.3,2.621693724,186.3822071
481.342,63.99183623,-22.60542632,146.2296515,30.15975,16.26337815,2.615085667,0.0009202715603,8.209592511e-05,4.939709785,0.1042116021,180.0132621,24.71100504,-32.71288608,5.374861573,5.374861573,1.282259612,59.27814788,21.89256423,343.3900808,59.34779494,326,112,112.4,118.3,128.3,2.618814177,185.7917564
481.433,63.99183623,-22.60542632,146.2296688,30.15975,16.27865895,2.612702022,0.000933908742,8.107757261e-05,4.937871087,0.1040349007,180.0132463,24.70819246,-32.7131874,5.374861573,5.374861573,1.298016924,59.27872559,22.81973787,357.9333909,59.3496333,326,112,112.4,118.3,128.3,2.616213342,185.2000687
481.542,63.99183623,-22.60542632,146.2296912,30.15975,16.29671807,2.609935141,0.0009388063031,7.933122748e-05,4.93545506,0.1038008305,180.0132254,24.7048801,-32.71269613,5.374861573,5.374861573,1.311484988,59.27952121,23.94043291,375.5123132,59.35205189,326,112,112.4,118.3,128.3,2.613500092,184.4993747
481.65,63.99183623,-22.60542632,146.2297152,30.15975,16.31477719,2.607378526,0.000930367331,7.721584629e-05,4.932856954,0.1035487228,180.0132029,24.70132695,-32.71180648,5.374861573,5.374861573,1.318535054,59.28043236,25.04611552,392.8558926,59.35469335,326,112,112.4,118.3,128.3,2.611178473,183.7973295
481.758,63.99183623,-22.60542632,146.2297353,30.15975,16.33283632,2.605539279,0.0009138432254,7.508200549e-05,4.93065971,0.1033356477,180.0131839,24.69829293,-32.7107357,5.374861573,5.374861573,1.319526388,59.28125594,25.91536655,406.4909579,59.35698678,326,112,112.4,118.3,128.3,2.609249566,183.0941406
481.842,63.99183623,-22.60542632,146.2297534,30.15975,16.34672795,2.604140714,0.0008923210681,7.288749444e-05,4.928686726,0.1031460851,180.013167,24.69577267,-32.70991574,5.374861573,5.374861573,1.317085927,59.28204449,26.65241679,418.052422,59.35911426,326,112,112.4,118.3,128.3,2.608033566,182.5525794
481.933,63.99183623,-22.60542632,146.2297709,30.15975,16.36200874,2.603018476,0.0008658261636,7.057147498e-05,4.926765371,0.102963158,180.0131507,24.69275807,-32.70878116,5.374861573,5.374861573,1.312028571,59.28286333,27.33589436,428.7736347,59.36126396,326,112,112.4,118.3,128.3,2.606965331,181.9563381
482.033,63.99183623,-22.60542632,146.2297893,30.15975,16.37867871,2.602110567,0.0008318198856,6.785932389e-05,4.924740754,0.1027752904,180.0131338,24.68975403,-32.70771531,5.374861573,5.374861573,1.304132006,59.28379038,28.0248297,439.5805715,59.3636358,326,112,112.4,118.3,128.3,2.606122215,181.3054138
482.133,63.99183623,-22.60542632,146.229807,30.15975,16.39534867,2.601535373,0.0007949814767,6.502500496e-05,4.922800125,0.1026013718,180.0131182,24.68676051,-32.70665429,5.374723145,5.374723145,1.294281528,59.28475124,28.65847217,449.5202795,59.36603526,326,112,112.4,118.3,128.3,2.605615653,180.6541524
482.233,63.99183623,-22.60542632,146.2298239,30.15975,16.41201864,2.60129389,0.0007560614106,6.214047474e-05,4.920948872,0.1024416454,180.0131038,24.68377749,-32.70559743,5.374723145,5.374723145,1.282943076,59.2857446,29.24058569,458.6517937,59.36846232,326,112,112.4,118.3,128.3,2.605445847,180.0027218
482.342,63.99183623,-22.60542632,146.2298412,30.15975,16.43007777,2.601407,0.0007095133614,5.894430849e-05,4.919051211,0.1022848719,180.0130896,24.68080494,-32.70454446,5.374723145,5.374723145,1.269438827,59.28685616,29.81723021,467.6976555,59.37112315,326,112,112.4,118.3,128.3,2.605641981,179.2970099
482.442,63.99183622,-22.60542632,146.2298563,30.15975,16.44674774,2.601858141,0.0006634223746,5.580226744e-05,4.917410491,0.1021551456,180.0130777,24.67759646,-32.7034528,5.374723145,5.374723145,1.256201736,59.28791335,30.30335747,475.3236974,59.37360761,326,112,112.4,118.3,128.3,2.606173803,178.6457679
482.55,63.99183622,-22.60542632,146.2298721,30.15975,16.46480688,2.602841427,0.0007306704332,7.684374859e-05,4.915733717,0.1020239635,180.0130658,24.6744002,-27.90238118,5.374723145,5.374723145,1.311403077,59.28911106,32.54596941,510.5013118,1435.968941,326,112,112.4,118.3,128.3,2.607129708,177.9406557
482.65,63.99183622,-22.60542632,146.2298989,30.15975,16.48147682,2.604889215,0.001591465238,0.0001653290646,4.913180601,0.1016653638,180.013035,24.67361703,-16.56579724,5.374723145,5.374723145,1.443917582,59.2904334,36.95336254,579.6350554,1436.105391,326,112,112.4,118.3,128.3,2.608362277,177.2903314
482.75,63.99183622,-22.60542632,146.2299485,30.15975,16.49814673,2.607488269,0.002663434902,0.0002500051473,4.908252635,0.1009026934,180.0129701,24.67283463,-11.92216948,5.374723145,5.374723145,1.545890278,59.29202086,40.96416086,642.5485963,1436.241776,326,112,112.4,118.3,128.3,2.609930556,176.6407052
482.833,63.99183622,-22.60542632,146.2300065,30.15975,16.51203828,2.609804013,0.003447634582,0.0003063805203,4.902282346,0.1000125241,180.0128942,24.6721832,-10.34991744,5.374584718,5.374584718,1.608846751,59.29355452,43.98345483,689.9100162,1436.355382,326,112,112.4,118.3,128.3,2.611493457,176.1000026
482.942,63.99183622,-22.60542632,146.2300994,30.15975,16.53009726,2.612893544,0.004197236405,0.0003558326917,4.892484641,0.09861078216,180.0127746,25.64042944,-3.723841356,5.374584718,5.374584718,1.663745036,59.29584104,47.46198876,744.4762084,1436.503004,326,112,112.4,118.3,128.3,2.613872413,175.3981421
483.042,63.99183622,-22.60542632,146.2301967,30.15975,16.54676707,2.615825548,0.004621301751,0.0003786151591,4.882053082,0.09716626047,180.0126512,27.21866318,2.60751458,5.374584718,5.374584718,1.69093471,59.29824731,50.2320785,787.9305033,1436.639205,326,112,112.4,118.3,128.3,2.6164159,174.7514922
483.15,63.99183621,-22.60542632,146.2303008,30.15975,16.56482603,2.622537045,0.008247341328,0.0003906168427,4.871162195,0.09553315207,180.0124667,28,5.200837972,5.374584718,5.374584718,1.69929905,59.30117214,52.77611232,827.840059,1436.786684,326,112,112.4,118.3,128.3,2.61954664,174.0524698
483.25,63.99183621,-22.60542632,146.2303815,30.15975,16.58149587,2.633441106,0.01600469804,0.0004205792856,4.863878519,0.09401862186,180.0122085,28,6.263063233,5.374584718,5.374584718,1.691332923,59.30415819,54.72902874,858.477879,1436.922753,326,112,112.4,118.3,128.3,2.622781788,173.4087869
483.358,63.9918362,-22.60542632,146.230451,30.15975,16.5995549,2.648234111,0.02738754316,0.0005351423289,4.859022756,0.09259990219,180.0120064,28,6.6981507,5.374584718,5.374584718,1.671642849,59.30740925,56.33198276,883.6269181,1437.058758,326,112,112.4,118.3,128.3,2.626659074,172.7133495
483.442,63.99183618,-22.60542632,146.2305108,30.15975,16.61344645,2.664712033,0.04050061438,0.0006445142487,4.856156936,0.09135797526,180.0117349,28,6.845453159,5.37444629,5.37444629,1.645756444,59.3106123,57.52045325,902.2745207,1437.183375,326,112,112.4,118.3,128.3,2.62990423,172.1798518
483.542,63.99183616,-22.60542632,146.2305765,30.15975,16.63011632,2.685283202,0.05717759667,0.0008405702155,4.854224191,0.09017286252,180.011465,28,6.936697614,5.37444629,5.37444629,1.611294628,59.31433511,58.54025858,918.2774711,1437.319259,326,112,112.4,118.3,128.3,2.634098559,171.5414587
483.667,63.99183613,-22.60542631,146.230654,30.15975,16.65095366,2.710030014,0.07741958562,0.001023874657,4.853067784,0.08903528482,180.0110498,28,6.974071343,5.37444629,5.37444629,1.569008798,59.31862103,59.35473286,931.0606785,1437.466395,326,112,112.4,118.3,128.3,2.639799624,170.7464495
483.75,63.99183609,-22.60542631,146.2307342,30.15975,16.66484517,2.734558567,0.09756343648,0.001229654662,4.852560723,0.08819633588,180.0105934,28,6.986724527,5.37444629,5.37444629,1.527262996,59.32279395,59.87115426,939.1684863,1437.602147,326,112,112.4,118.3,128.3,2.64388166,170.218414
483.85,63.99183604,-22.60542631,146.2308167,30.15975,16.68151501,2.758041415,0.1168546529,0.00147318514,4.852378638,0.08755605899,180.0100534,28,6.993202958,5.37444629,5.37444629,1.487939606,59.32678639,60.17142992,943.8855159,1437.726531,326,112,112.4,118.3,128.3,2.649075478,169.5869862
483.95,63.99183598,-22.60542631,146.2309185,30.15975,16.6981848,2.784438496,0.1384227671,0.001718798432,4.852348375,0.08701076323,180.0094798,28,6.996519915,5.37444629,5.37444629,1.444919083,59.33130996,60.33525213,946.4630077,1437.862161,326,112,112.4,118.3,128.3,2.654589745,168.9581056
484.042,63.99183591,-22.60542631,146.231033,30.15975,16.71346541,2.811261245,0.1601905842,0.001944776414,4.852410705,0.08662132723,180.0088725,28,6.998218196,5.37444629,5.37444629,1.402604605,59.33599355,60.35245079,946.7407496,1437.997728,326,112,112.4,118.3,128.3,2.659924306,168.3839849
484.142,63.99183584,-22.60542631,146.2311507,30.15975,16.73013518,2.836069226,0.1800598626,0.002119985508,4.852486598,0.08635387908,180.0083434,28,6.999087716,5.374307863,5.374307863,1.364992404,59.34041448,60.25894836,945.2814835,1438.121942,326,112,112.4,118.3,128.3,2.666047111,167.7603611
484.258,63.99183574,-22.60542631,146.2313164,30.15975,16.74958318,2.867311339,0.204909891,0.002401139262,4.852555633,0.08624478102,180.0075638,28,6.999626329,5.374307863,5.374307863,1.319333919,59.34620056,60.01459872,941.4581415,1438.279956,326,112,112.4,118.3,128.3,2.673587577,167.0365132
484.35,63.99183565,-22.60542631,146.2314588,30.15975,16.76486373,2.891490819,0.2238932763,0.00264464496,4.852571922,0.08628411428,180.0068751,28,6.99980868,5.374307863,5.374307863,1.285504373,59.35086011,59.74185406,937.1873854,1438.404048,326,112,112.4,118.3,128.3,2.67981004,166.4707023
484.433,63.99183556,-22.60542631,146.231599,30.15975,16.77875512,2.913117501,0.240618757,0.002835025792,4.852541071,0.08637327982,180.0063763,28,6.999902044,5.374307863,5.374307863,1.256459817,59.35517397,59.44406891,932.523159,1438.516814,326,112,112.4,118.3,128.3,2.685692606,165.9586487
484.542,63.99183542,-22.60542631,146.2318105,30.15975,16.79681387,2.942806657,0.2630334099,0.003081700424,4.852430345,0.08659856808,180.0053475,28,6.999959877,5.374307863,5.374307863,1.218660941,59.36132675,58.96414881,925.0046643,1438.674612,326,112,112.4,118.3,128.3,2.693658994,165.2963954
484.65,63.99183529,-22.60542631,146.2320228,30.15975,16.81487262,2.969540544,0.2826815132,0.003262821982,4.852255215,0.08687546188,180.0045091,28,6.999983566,5.374307863,5.374307863,1.186604653,59.36714638,58.46899882,917.246533,1438.821061,326,112,112.4,118.3,128.3,2.701983081,164.6381351
484.742,63.99183516,-22.60542631,146.2322117,30.15975,16.83015308,2.991253271,0.2983628987,0.003480801432,4.852060103,0.08721294763,180.0036486,28,6.999991586,5.374307863,5.374307863,1.161754574,59.37214338,58.02380534,910.2706099,1438.944923,326,112,112.4,118.3,128.3,2.709303518,164.0843654
484.85,63.99183501,-22.60542631,146.2324491,30.15975,16.84821177,3.016217489,0.3157352412,0.003639551489,4.851784144,0.08762495067,180.0026221,28,6.999996553,5.374307863,5.374307863,1.135009807,59.37812622,57.47767798,901.7127028,1439.091235,326,112,112.4,118.3,128.3,2.718279291,163.43383
484.933,63.99183489,-22.60542631,146.2326394,30.15975,16.86210306,3.034707306,0.3282266966,0.003759273468,4.851542123,0.08796663617,180.0017624,28,6.999998235,5.374169435,5.374169435,1.116305316,59.38278132,57.04926869,894.9992679,1439.203733,326,112,112.4,118.3,128.3,2.725420788,162.9363819
485.042,63.99183472,-22.60542632,146.2328962,30.15975,16.88016172,3.057665014,0.3433266907,0.003986053455,4.851207868,0.08852165754,180.0006207,28,6.999999277,5.374169435,5.374169435,1.09430744,59.38889642,56.48917197,886.2220878,1439.349915,326,112,112.4,118.3,128.3,2.735009995,162.2936498
485.15,63.99183456,-22.60542632,146.2331438,30.15975,16.8982204,3.078114387,0.3561351819,0.004131705955,4.85086374,0.08901281432,179.9995616,28,6.999999704,5.374169435,5.374169435,1.076205532,59.39460055,55.97532598,878.1696737,1439.484787,326,112,112.4,118.3,128.3,2.744940921,161.6554884
485.25,63.99183438,-22.60542632,146.2334226,30.15975,16.91488984,3.099467214,0.3688140895,0.004220436021,4.850468476,0.08954287589,179.9984282,28,6.999999879,5.374169435,5.374169435,1.058829873,59.40084121,55.42834469,869.5980827,1439.630827,326,112,112.4,118.3,128.3,2.754408097,161.0705671
485.35,63.9918342,-22.60542632,146.233687,30.15975,16.93155932,3.118262969,0.3794462453,0.004353005815,4.850098696,0.09004901917,179.9973368,28,6.99999995,5.374169435,5.374169435,1.044712367,59.4066552,54.9370566,861.8994032,1439.765567,326,112,112.4,118.3,128.3,2.764160322,160.4897128
485.433,63.99183406,-22.60542632,146.2339127,30.15975,16.94545054,3.133409075,0.3875513719,0.004443086352,4.849787658,0.09044314518,179.9964014,28,6.999999975,5.374169435,5.374169435,1.03425855,59.41153858,54.54027222,855.6818054,1439.877803,326,112,112.4,118.3,128.3,2.772502784,160.0088293
485.542,63.99183386,-22.60542632,146.2342117,30.15975,16.96350911,3.152146981,0.3971069295,0.004601665786,4.849384889,0.09104655665,179.9951834,28,6.99999999,5.374169435,5.374169435,1.022318286,59.41793755,54.04452339,847.9137376,1440.023645,326,112,112.4,118.3,128.3,2.783637935,159.3880501
485.65,63.99183367,-22.60542632,146.234495,30.15975,16.98156772,3.168933049,0.4049949873,0.004681854079,4.849023404,0.09155873002,179.9940669,28,6.999999996,5.374169435,5.374169435,1.012822955,59.42389431,53.60933663,841.095004,1440.158203,326,112,112.4,118.3,128.3,2.795097217,158.7722892
485.758,63.99183347,-22.60542632,146.2348081,30.15975,16.99962626,3.186588199,0.4125930395,0.004719230839,4.848645116,0.09208213815,179.9928768,28,6.999999998,5.374169435,5.374169435,1.004044045,59.43040218,53.1641797,834.120522,1440.303903,326,112,112.4,118.3,128.3,2.806876669,158.1616265
485.833,63.99183331,-22.60542632,146.2350518,30.15975,17.01212828,3.199697982,0.4178090737,0.004768111353,4.848365474,0.09245872965,179.9919206,28,6.999999999,5.374031008,5.374031008,0.9982670658,59.43544709,52.84130008,829.0621968,1440.41593,326,112,112.4,118.3,128.3,2.815217144,157.7418858
485.942,63.9918331,-22.60542632,146.2353727,30.15975,17.03018681,3.215980937,0.423829334,0.004906184838,4.848013311,0.09301434614,179.9906761,28,7,5.374031008,5.374031008,0.9919102241,59.44205659,52.44777529,822.8976803,1440.561501,326,112,112.4,118.3,128.3,2.827529283,157.1400163
486.042,63.9918329,-22.60542632,146.235673,30.15975,17.04685622,3.230745385,0.4286802047,0.004959794395,4.847710275,0.0934728141,179.9895366,28,7,5.374031008,5.374031008,0.9870927814,59.44820982,52.11122921,817.6263464,1440.695808,326,112,112.4,118.3,128.3,2.83916892,156.5891329
486.158,63.99183269,-22.60542632,146.236003,30.15975,17.0663039,3.246463344,0.4332291906,0.00495083536,4.847405356,0.09392692773,179.9883305,28,7,5.374031008,5.374031008,0.9828935893,59.45493442,51.77562058,812.3704375,1440.841238,326,112,112.4,118.3,128.3,2.853077287,155.9521875
486.233,63.99183252,-22.60542632,146.2362582,30.15975,17.07880589,3.258246487,0.4362684022,0.005003679451,4.847193524,0.0942351211,179.9873677,28,7,5.374031008,5.374031008,0.9803127358,59.46014971,51.53780306,808.6465945,1440.953057,326,112,112.4,118.3,128.3,2.86220307,155.5460228
486.342,63.9918323,-22.60542632,146.2365921,30.15975,17.0968644,3.272994204,0.4396761556,0.005079135922,4.846942732,0.09469774523,179.9861183,28,7,5.374031008,5.374031008,0.9777110959,59.46698638,51.2546072,804.2130112,1441.098357,326,112,112.4,118.3,128.3,2.875636698,154.9639377
486.45,63.99183213,-22.60542632,146.2368506,30.15975,17.11492305,3.284163214,0.4419170831,0.005111216575,4.846766874,0.09501726373,179.9851855,28,7,5.374031008,5.374031008,0.9762470088,59.4722905,51.05626859,801.1085907,1441.196949,326,112,112.4,118.3,128.3,2.889364358,154.3873248
486.558,63.99183189,-22.60542632,146.2372153,30.15975,17.1329815,3.299735546,0.4445504916,0.005147192263,4.846548852,0.09540946826,179.9838399,27.978027,7,5.374031008,5.374031008,0.9749998006,59.47978809,50.80661196,797.202024,1441.232309,326,112,112.4,118.3,128.3,2.903381858,153.8162223
486.642,63.99183169,-22.60542632,146.237529,30.15975,17.14687254,3.312819473,0.4463912927,0.005168833469,4.846385728,0.0957368662,179.9827033,27.8317622,7,5.374031008,5.374031008,0.9744714543,59.48627747,50.61773168,794.2475652,1441.262616,326,112,112.4,118.3,128.3,2.914359181,153.3806835
486.75,63.99183146,-22.60542632,146.2378718,30.15975,17.16493103,3.327040033,0.4480061524,0.005127106406,4.846230294,0.09604773315,179.9814971,27.72172424,7,5.374031008,5.374031008,0.9743807844,59.49337744,50.43782472,791.4347073,1441.29545,326,112,112.4,118.3,128.3,2.92887925,152.8194082
486.833,63.99183129,-22.60542632,146.2381351,30.15975,17.17882217,3.337877539,0.4490106699,0.005150453541,4.846126337,0.09625232625,179.9805371,27.6527526,7,5.37389258,5.37389258,0.974604316,59.49889055,50.3159484,789.5301178,1441.320707,326,112,112.4,118.3,128.3,2.940238134,152.3914613
486.933,63.99183108,-22.60542632,146.2384517,30.15975,17.19549155,3.350781938,0.4499786802,0.005173235382,4.846022057,0.09652111364,179.9794004,27.57992657,7,5.37389258,5.37389258,0.9751589404,59.50556686,50.18749072,787.5238616,1441.351015,326,112,112.4,118.3,128.3,2.954083459,151.8823043
487.033,63.99183088,-22.60542632,146.2387696,30.15975,17.21216092,3.363692062,0.4507221324,0.005167852683,4.845933554,0.09677738851,179.9782653,27.51725253,7,5.37389258,5.37389258,0.9759770105,59.51231142,50.07717826,785.8023853,1441.381322,326,112,112.4,118.3,128.3,2.968159878,151.3779371
487.142,63.99183065,-22.60542632,146.2391134,30.15975,17.2302194,3.377479426,0.4513109997,0.005238969992,4.84586162,0.09708220417,179.9770227,27.45995097,7,5.37389258,5.37389258,0.9771055552,59.51969748,49.97657844,784.2341805,1441.414156,326,112,112.4,118.3,128.3,2.983666316,150.8369557
487.258,63.99183042,-22.60542632,146.2394593,30.15975,17.24966705,3.391749976,0.4517158246,0.005174349953,4.845805715,0.09732544293,179.9758151,27.41274915,7,5.37389258,5.37389258,0.9784330062,59.52716809,49.89396748,782.9483386,1441.446989,326,112,112.4,118.3,128.3,3.000659839,150.2606695
487.358,63.99183022,-22.60542632,146.2397779,30.15975,17.26633642,3.402018924,0.4519534071,0.00519368331,4.845778096,0.0975438579,179.974678,27.38000332,7,5.37389258,5.37389258,0.9797924055,59.53414147,49.83220665,781.9889543,1441.477297,326,112,112.4,118.3,128.3,3.007284839,150.0404713
487.45,63.99183003,-22.60542632,146.2400694,30.15975,17.28161667,3.401878785,0.4520780938,0.005259815248,4.84575105,0.09773160107,179.9736099,27.35111088,7,5.37389258,5.37389258,0.981121296,59.54059973,49.78667501,781.2835029,1441.505079,326,112,112.4,118.3,128.3,3.007284851,150.0404714
487.558,63.9918298,-22.60542632,146.2404149,30.15975,17.29967516,3.402012423,0.452137842,0.005182650711,4.845726573,0.09788292505,179.9723996,27.33030644,7,5.37389258,5.37389258,0.9827604761,59.54831601,49.74515638,780.6427723,1441.537912,326,112,112.4,118.3,128.3,3.007284847,150.0404714
487.65,63.99182961,-22.60542632,146.2407055,30.15975,17.31495541,3.401750748,0.4521284702,0.005236780659,4.845703001,0.09800014256,179.9713283,27.31317409,7,5.37389258,5.37389258,0.9841814165,59.55491626,49.71934728,780.2469923,1441.565694,326,112,112.4,118.3,128.3,3.00728486,150.0404714
487.758,63.99182938,-22.60542632,146.2410506,30.15975,17.3330139,3.401778879,0.4520701531,0.005192475032,4.845663331,0.09807317611,179.9701169,27.30043409,7,5.37389258,5.37389258,0.9858740697,59.56280311,49.6985613,779.9318321,1441.598527,326,112,112.4,118.3,128.3,3.007284855,150.0404714
487.85,63.99182917,-22.60542632,146.2413681,30.15975,17.3482941,3.401612084,0.4519852936,0.005179004226,4.845642079,0.09812868294,179.968973,27.29338884,7,5.373754153,5.373754153,0.9874279448,59.57016676,49.68757641,779.7697441,1441.628835,326,112,112.4,118.3,128.3,3.007284856,150.0404714
487.95,63.99182898,-22.60542632,146.2416581,30.15975,17.36496353,3.401271933,0.451893119,0.00520564897,4.845618282,0.09818898123,179.9679017,27.29039617,7,5.373754153,5.373754153,0.9888294796,59.57698808,49.68351346,779.7155238,1441.656617,326,112,112.4,118.3,128.3,3.007284865,150.0404715
488.042,63.99182879,-22.60542632,146.2419496,30.15975,17.38024378,3.401349535,0.451798269,0.005171562591,4.84560231,0.09817126968,179.9668658,27.29040338,7,5.373754153,5.373754153,0.990197187,59.5838785,49.68442518,779.7394706,1441.684398,326,112,112.4,118.3,128.3,3.007284856,150.0404714
488.133,63.99182858,-22.60542632,146.2422666,30.15975,17.39552399,3.401167954,0.4516991548,0.005160737528,4.845594498,0.0981929701,179.9657198,27.29298939,7,5.373754153,5.373754153,0.991639221,59.59147502,49.69027464,779.8418989,1441.714706,326,112,112.4,118.3,128.3,3.00728486,150.0404714
488.25,63.99182836,-22.60542632,146.2426088,30.15975,17.41497164,3.400742215,0.4516060273,0.005228506887,4.845583306,0.09825162873,179.9644649,27.29926239,7,5.373754153,5.373754153,0.9931310473,59.59979828,49.70139275,780.0280345,1441.747539,326,112,112.4,118.3,128.3,3.00728485,150.0404714
488.5,63.99182829,-22.60542632,146.2427145,30.15975,17.45664643,3.400689894,0.451582646,0.00521119996,4.845582186,0.09825271902,179.9640822,27.30098121,7,5.373754153,5.373754153,0.9935736976,59.60237931,49.70566446,780.0986882,1441.757641,326,112,112.4,118.3,128.3,3.007284859,150.0404714
488.5,63.99182829,-22.60542632,146.2427145,30.15975,17.45664643,3.400689894,0.451582646,0.00521119996,4.845582186,0.09825271902,179.9640822,27.30098121,7,5.373754153,5.373754153,0.9935736976,59.60237931,49.70566446,780.0986882,1441.757641,326,112,112.4,118.3,128.3,3.007284859,150.0404714
488.558,63.99182777,-22.60542632,146.2435061,30.15975,17.46636903,3.400227387,0.4514934072,0.005228516237,4.845591169,0.09826170837,179.9612289,27.30345409,7,5.373754153,5.373754153,0.9966153346,59.62209032,49.74697542,780.7746475,1441.833412,326,112,112.4,118.3,128.3,3.007284849,150.0404714
488.658,63.99182751,-22.60542631,146.2439029,30.15975,17.48303825,3.400470374,0.4515301554,0.005142504747,4.845600441,0.09821787931,179.9597996,27.33753611,7,5.373754153,5.373754153,0.9979467535,59.63211945,49.77222387,781.1849761,1441.871294,326,112,112.4,118.3,128.3,3.007284849,150.0404714
488.742,63.99182731,-22.60542631,146.244192,30.15975,17.49692934,3.400267572,0.45159222,0.005226041826,4.845612403,0.09821702117,179.9587182,27.34851088,7,5.373754153,5.373754153,0.9988384485,59.63955754,49.7918099,781.5028118,1441.899076,326,112,112.4,118.3,128.3,3.007284857,150.0404714
488.842,63.99182712,-22.60542631,146.2444835,30.15975,17.51359876,3.400516366,0.4516894912,0.00516900465,4.845624407,0.09815830117,179.9576753,27.35983884,7,5.373615725,5.373615725,0.9996582069,59.64706735,49.81191483,781.8289012,1441.926857,326,112,112.4,118.3,128.3,3.007284849,150.0404714
488.958,63.99182688,-22.60542631,146.2448532,30.15975,17.53304636,3.400486729,0.4518599223,0.005190413095,4.845638058,0.09816851507,179.956341,27.37555145,7,5.373615725,5.373615725,1.000598668,59.65672886,49.83779283,782.2486324,1441.962215,326,112,112.4,118.3,128.3,3.00728485,150.0404714
489.033,63.99182671,-22.60542631,146.2451178,30.15975,17.54554834,3.400621978,0.4520157488,0.005172484654,4.845654094,0.0981253467,179.955366,27.38603352,7,5.373615725,5.373615725,1.001201341,59.66370089,49.85620906,782.5474808,1441.987471,326,112,112.4,118.3,128.3,3.007284847,150.0404714
489.15,63.99182648,-22.60542631,146.2454606,30.15975,17.56499599,3.400494331,0.4522578916,0.005227827201,4.845671517,0.09814560121,179.9541021,27.39949114,7,5.373615725,5.373615725,1.001901447,59.67285286,49.87976588,782.9300872,1442.020304,326,112,112.4,118.3,128.3,3.007284841,150.0404713
489.25,63.99182627,-22.60542631,146.245778,30.15975,17.58166536,3.40063709,0.4525227746,0.005217833285,4.8456887,0.09812855194,179.9529436,27.41061084,7,5.373615725,5.373615725,1.00246718,59.68138995,49.90088407,783.2735638,1442.050611,326,112,112.4,118.3,128.3,3.007284865,150.0404715
489.35,63.99182606,-22.60542631,146.2460955,30.15975,17.59833474,3.400815351,0.4528233291,0.005245712775,4.845710943,0.09811025103,179.9517842,27.42235429,7,5.373615725,5.373615725,1.002959424,59.69001183,49.92120589,783.6046696,1442.080918,326,112,112.4,118.3,128.3,3.007284848,150.0404714
489.442,63.99182585,-22.60542631,146.2464149,30.15975,17.61361494,3.401019887,0.4531553301,0.005237018941,4.845718197,0.09808158855,179.9506223,27.43360598,7,5.373615725,5.373615725,1.003382193,59.69871823,49.94057688,783.9209792,1442.111225,326,112,112.4,118.3,128.3,3.007284856,150.0404714
489.542,63.99182566,-22.60542631,146.2467098,30.15975,17.63028435,3.401475901,0.4534853277,0.005217187937,4.845707086,0.09801223442,179.9495691,27.44342682,7,5.373615725,5.373615725,1.003712372,59.70677289,49.95739638,784.1963302,1442.139006,326,112,112.4,118.3,128.3,3.007284873,150.0404715
489.633,63.99182545,-22.60542631,146.2470321,30.15975,17.64556455,3.401726706,0.4538704546,0.005216939413,4.845685683,0.09799480153,179.9484041,27.45354928,7,5.373615725,5.373615725,1.004014087,59.71564045,49.97463507,784.4794136,1442.169313,326,112,112.4,118.3,128.3,3.007284886,150.0404716
489.742,63.99182523,-22.60542631,146.2473802,30.15975,17.66362302,3.401777695,0.4543142104,0.005290432601,4.845666397,0.098020327,179.9471287,27.46377747,7,5.373615725,5.373615725,1.004277316,59.72534069,49.99193748,784.7646789,1442.202145,326,112,112.4,118.3,128.3,3.007284886,150.0404716
489.85,63.991825,-22.60542631,146.2477315,30.15975,17.68168149,3.402274454,0.4547858977,0.005252599932,4.845636909,0.09798509656,179.9458908,27.47389475,7,5.373477298,5.373477298,1.004479953,59.7351386,50.00775981,785.0268573,1442.234977,326,112,112.4,118.3,128.3,3.007284891,150.0404716
489.933,63.99182482,-22.60542631,146.2480013,30.15975,17.69557263,3.402608841,0.4551640236,0.005262764232,4.845603129,0.09793680746,179.9449041,27.47989935,7,5.373477298,5.373477298,1.004598215,59.74274167,50.01890908,785.2125928,1442.260233,326,112,112.4,118.3,128.3,3.0072849,150.0404717
490.042,63.9918246,-22.60542631,146.2483524,30.15975,17.7136311,3.402716175,0.455672576,0.005325467619,4.845544537,0.09796273933,179.9436237,27.48845645,7,5.373477298,5.373477298,1.004707706,59.75271118,50.03207677,785.433355,1442.293065,326,112,112.4,118.3,128.3,3.007284908,150.0404717
490.142,63.99182439,-22.60542631,146.2486776,30.15975,17.73030045,3.403059314,0.456158801,0.005320555718,4.845485742,0.09794543901,179.9424527,27.4939915,7,5.373477298,5.373477298,1.00476866,59.76200001,50.0429121,785.61655,1442.323372,326,112,112.4,118.3,128.3,3.007284903,150.0404717
490.242,63.99182419,-22.60542631,146.2489771,30.15975,17.74696986,3.403631307,0.4566164877,0.005281127086,4.845437375,0.09788650926,179.9413899,27.50000845,7,5.373477298,5.373477298,1.004794493,59.77058619,50.05176311,785.7676082,1442.351152,326,112,112.4,118.3,128.3,3.007284931,150.0404718
490.333,63.99182398,-22.60542631,146.2493038,30.15975,17.76225005,3.403996479,0.4571249864,0.005285734316,4.845393552,0.09787371746,179.9402137,27.50536507,7,5.373477298,5.373477298,1.004793531,59.78003105,50.06027204,785.9145117,1442.381459,326,112,112.4,118.3,128.3,3.007284926,150.0404718
490.442,63.99182377,-22.60542631,146.2496308,30.15975,17.78030856,3.404365606,0.4576419713,0.005288243677,4.845343857,0.09784735264,179.9390397,27.50971657,7,5.373477298,5.373477298,1.004765838,59.78955695,50.0676317,786.0434914,1442.411765,326,112,112.4,118.3,128.3,3.007284947,150.0404719
490.55,63.99182352,-22.60542631,146.2500123,30.15975,17.79836698,3.404733078,0.4582529484,0.005294895616,4.845280306,0.09785519155,179.9376775,27.51513646,7,5.373477298,5.373477298,1.004704566,59.80077164,50.07484376,786.172541,1442.447122,326,112,112.4,118.3,128.3,3.007284956,150.040472
490.633,63.99182335,-22.60542631,146.2502845,30.15975,17.8122581,3.405120661,0.4586929804,0.005312055142,4.845232274,0.09780998458,179.9366827,27.51800896,7,5.373477298,5.373477298,1.004644414,59.80884876,50.07913746,786.2513493,1442.472377,326,112,112.4,118.3,128.3,3.007284946,150.0404719
491.158,63.99182329,-22.60542631,146.2503662,30.15975,17.89977544,3.404811917,0.458824928,0.005349949836,4.845216227,0.09786925512,179.9363916,27.51879722,7,5.373477298,5.373477298,1.004624029,59.81128261,50.08029302,786.2729263,1442.479954,326,112,112.4,118.3,128.3,3.007284969,150.040472
491.158,63.99182329,-22.60542631,146.2503662,30.15975,17.89977544,3.404811917,0.458824928,0.005349949836,4.845216227,0.09786925512,179.9363916,27.51879722,7,5.373477298,5.373477298,1.004624029,59.81128261,50.08029302,786.2729263,1442.479954,326,112,112.4,118.3,128.3,3.007284969,150.040472
491.158,63.99182329,-22.60542631,146.2503662,30.15975,17.89977544,3.404811917,0.458824928,0.005349949836,4.845216227,0.09786925512,179.9363916,27.51879722,7,5.373477298,5.373477298,1.004624029,59.81128261,50.08029302,786.2729263,1442.479954,326,112,112.4,118.3,128.3,3.007284969,150.040472
491.158,63.99182329,-22.60542631,146.2503662,30.15975,17.89977544,3.404811917,0.458824928,0.005349949836,4.845216227,0.09786925512,179.9363916,27.51879722,7,5.373477298,5.373477298,1.004624029,59.81128261,50.08029302,786.2729263,1442.479954,326,112,112.4,118.3,128.3,3.007284969,150.040472
491.158,63.99182329,-22.60542631,146.2503662,30.15975,17.89977544,3.404811917,0.458824928,0.005349949836,4.845216227,0.09786925512,179.9363916,27.51879722,7,5.373477298,5.373477298,1.004624029,59.81128261,50.08029302,786.2729263,1442.479954,326,112,112.4,118.3,128.3,3.007284969,150.040472
491.25,63.99182218,-22.6054263,146.2520934,30.15975,17.91505285,3.407100913,0.4615537685,0.005329902967,4.844884529,0.09777454855,179.9301931,27.51955242,7,5.37333887,5.37333887,1.004008805,59.86379637,50.09108733,786.516527,1442.639066,326,112,112.4,118.3,128.3,3.007285023,150.0404724
491.342,63.99182186,-22.6054263,146.2525882,30.15975,17.93033271,3.407725182,0.4623215334,0.005344049465,4.844793449,0.09772341597,179.9283999,27.52880099,7,5.37333887,5.37333887,1.003808921,59.87912724,50.0911935,786.5398374,1442.684519,326,112,112.4,118.3,128.3,3.007285031,150.0404724
491.608,63.99182165,-22.6054263,146.2529188,30.15975,17.97478538,3.408082387,0.4628224286,0.005350544752,4.844729918,0.09770776909,179.9272119,27.52905772,7,5.37333887,5.37333887,1.00367296,59.88944106,50.09063331,786.5456024,1442.714825,326,112,112.4,118.3,128.3,3.007285039,150.0404724
491.608,63.99182165,-22.6054263,146.2529188,30.15975,17.97478538,3.408082387,0.4628224286,0.005350544752,4.844729918,0.09770776909,179.9272119,27.52905772,7,5.37333887,5.37333887,1.00367296,59.88944106,50.09063331,786.5456024,1442.714825,326,112,112.4,118.3,128.3,3.007285039,150.0404724
491.658,63.99182122,-22.6054263,146.2535809,30.15975,17.98311907,3.408758704,0.4637860755,0.005360477924,4.844599305,0.09768095189,179.9248323,27.52909608,7,5.37333887,5.37333887,1.003395892,59.91033273,50.08800611,786.5338439,1442.775438,326,112,112.4,118.3,128.3,3.007285053,150.0404725
491.742,63.99182099,-22.6054263,146.2539393,30.15975,17.99701003,3.40886006,0.4642891746,0.005411861572,4.844530933,0.09771247755,179.9235312,27.52836728,7,5.37333887,5.37333887,1.003249467,59.92175931,50.08609034,786.519893,1442.808267,326,112,112.4,118.3,128.3,3.007285076,150.0404726
491.85,63.99182075,-22.6054263,146.2542996,30.15975,18.01506848,3.409374685,0.4647788375,0.005376665419,4.844462538,0.09768347872,179.9222644,27.52769456,7,5.373200443,5.373200443,1.003105389,59.93327394,50.0838335,786.5007099,1442.841098,326,112,112.4,118.3,128.3,3.007285077,150.0404727
491.933,63.99182058,-22.6054263,146.2545764,30.15975,18.0289596,3.409698879,0.465144428,0.005378051282,4.844409744,0.09763855506,179.9212573,27.52709606,7,5.373200443,5.373200443,1.002996563,59.94219197,50.08189475,786.482855,1442.866353,326,112,112.4,118.3,128.3,3.007285079,150.0404727
492.05,63.99182033,-22.6054263,146.2549642,30.15975,18.04840716,3.409961003,0.4656395145,0.00539705214,4.844330863,0.09765555369,179.9198755,27.52619517,7,5.373200443,5.373200443,1.002847743,59.95476554,50.07893252,786.4540878,1442.901709,326,112,112.4,118.3,128.3,3.007285096,150.0404728
492.133,63.99182016,-22.6054263,146.2552128,30.15975,18.06229834,3.409833589,0.4659474826,0.005438918956,4.844284492,0.09767240607,179.9189707,27.52542261,7,5.373200443,5.373200443,1.002754579,59.96290233,50.07690296,786.4337025,1442.924438,326,112,112.4,118.3,128.3,3.007285103,150.0404728
492.242,63.99181991,-22.6054263,146.2556014,30.15975,18.08035674,3.41029666,0.4664107379,0.00543837959,4.844207764,0.09764302583,179.9175583,27.52433531,7,5.373200443,5.373200443,1.002613772,59.97564406,50.07358294,786.3995512,1442.959794,326,112,112.4,118.3,128.3,3.007285125,150.0404729
492.358,63.99181968,-22.6054263,146.2559632,30.15975,18.09980435,3.41074505,0.4668239702,0.005414398208,4.844136944,0.09761492937,179.9162875,27.52308158,7,5.373200443,5.373200443,1.002487877,59.98756664,50.07036507,786.3658464,1442.992625,326,112,112.4,118.3,128.3,3.007285132,150.040473
492.442,63.99181948,-22.6054263,146.2562673,30.15975,18.11369542,3.41078411,0.4671601238,0.005437708116,4.844081799,0.09761603731,179.9151683,27.52214782,7,5.373200443,5.373200443,1.002385074,59.99772368,50.06756413,786.3361958,1443.020405,326,112,112.4,118.3,128.3,3.007285148,150.040473
492.558,63.99181925,-22.60542629,146.2566283,30.15975,18.13314303,3.411205277,0.4675434628,0.005398567076,4.844026887,0.09758560074,179.9138952,27.52080281,7,5.373200443,5.373200443,1.002268144,60.00980763,50.06419333,786.3003142,1443.053236,326,112,112.4,118.3,128.3,3.007285131,150.040473
492.642,63.99181907,-22.60542629,146.2569053,30.15975,18.14703415,3.411453609,0.4678270737,0.005378702734,4.843990365,0.09753954498,179.9128859,27.51982549,7,5.373200443,5.373200443,1.002181521,60.01916226,50.06156963,786.2723121,1443.07849,326,112,112.4,118.3,128.3,3.007285156,150.0404731
492.758,63.99181882,-22.60542629,146.257293,30.15975,18.16648172,3.41161408,0.4682069292,0.00538121138,4.843945312,0.0975533425,179.9115027,27.51844593,7,5.373200443,5.373200443,1.00206504,60.03234518,50.05787334,786.2328669,1443.113846,326,112,112.4,118.3,128.3,3.007285153,150.0404731
492.85,63.99181862,-22.60542629,146.2575963,30.15975,18.18176195,3.41160629,0.4684908322,0.005458244014,4.84391032,0.09755193452,179.9103803,27.51746053,7,5.373062016,5.373062016,1.00197736,60.04277371,50.05496528,786.2019121,1443.141626,326,112,112.4,118.3,128.3,3.007285165,150.0404731
